id	city	lng	lat
cnl00015980	Aichach	11.1331	48.6331
cnl00028145	Igualada, Catalunya	1.6167	41.5831
cnl00016931	Esztergom	18.75	47.7997
cnl00005018	Beemster	4.9331	52.5667
cnl00003085	Longchamps	2.2339	48.8606
cnl00014962	Vaudemont	6.0497	48.42
cnl00016321	Naaldwijk	4.2167	5.2667
cnl00016286	Diepenveen	6.15	5.3381
cnl00016304	Hattem	5.0667	52.4667
cnl00016340	Susteren	5.8667	51.7831
cnl00016351	Westerblokker	5.0831	52.6497
cnl00016291	Egmond	4.6167	52.6167
cnl00016307	Hensbroek	45.5	52.6497
cnl00016312	IJsselstein	5.5	52.0167
cnl00016313	Jutphaas	50.8331	50.8331
cnl00016332	Rossum	52.35	6.9167
cnl00007581	Blanchefosse-et-Bay	4.2197	49.77
cnl00008076	Nozzano	10.4297	43.85
cnl00014684	Tongerlo	4.9	51.1197
cnl00014517	Tambach-Dietharz, Thüringer Wald	10.6197	50.7997
cnl00000302	Gabelberg	8.4147	46.5722
cnl00001228	Riom	3.12	45.8997
cnl00016413	Bezdán	18.925	45.8517
cnl00000075	Bärn	17.4444	49.7964
cnl00014033	Setúbal	-8.9	38.53
cnl00016266	Abcoude	4.9831	52.2667
cnl00001936	Bionne	3.8206	43.6019
cnl00003763	Binghamton, NY	-75.9117	42.1019
cnl00016276	Binderen	5.6667	51.4831
cnl00016277	Binnenwijzend	5.1331	52.6667
cnl00018664	Calahorra	1.9508	43.3506
cnl00003087	Laskas	22.0831	56.1667
cnl00003578	La Forest-sur-Sêvre	0.6331	46.7667
cnl00003158	La Motte	4.8525	45.7444
cnl00001506	Weidenbach	6.9453	50.9281
cnl00003705	Alton	-0.9767	51.1494
cnl00003135	Monasterium Alexandri Nevski	30.3878	59.9206
cnl00002808	Almeirin	-8.6283	39.2092
cnl00003658	Weinheim, Alzey	8.1158	49.7517
cnl00016704	Ólubló	20.6883	49.3017
cnl00000888	Macao	113.5497	22.1667
cnl00002268	Orense	7.8631	42.3364
cnl00001829	Ammerdon Park	-2.4472	51.2922
cnl00003139	Marienthal, Rheingau	76.1667	50.0
cnl00005360	Sommelsdijk	5.5	51.7667
cnl00005443	Kralingen	40.5	51.9167
cnl00016371	Abádszalók	20.6167	47.4667
cnl00016414	Bicske	18.6364	47.4906
cnl00016430	Buziásfürdő	21.5831	45.0719
cnl00016440	Csepel	18.9497	47.2667
cnl00016449	Csorna	17.25	47.45
cnl00016459	Detrekő	17.25	46.4831
cnl00016596	Kula	18.5331	45.6
cnl00016639	Miaburgi	20.7831	48.1
cnl00016751	Rahó	24.2053	48.0556
cnl00007814	Buchsweiler	7.48	48.82
cnl00008644	Disentis	8.8497	46.7
cnl00009084	Falaise	-0.2	48.8997
cnl00009507	Goes	3.8797	51.5
cnl00014783	Trogen	9.47	47.3997
cnl00016267	Agnietenberg	6.1331	52.5331
cnl00016288	Doesburg	5.62	52.07
cnl00016372	Abony	20.0053	47.1892
cnl00016373	Abrudbánya	23.0631	46.2739
cnl00016557	Karánsebes	221.5	45.4167
cnl00001303	Sankt Viktor	8.2925	49.9847
cnl00006696	Albacete	-1.51	38.59
cnl00015778	Zug	8.5197	47.17
cnl00016318	Monnikendam	5.03	52.4697
cnl00016393	Balkány	47.7667	47.7667
cnl00016454	Dárda	18.6831	45.6167
cnl00016468	Dombóvár	18.1167	18.1167
cnl00016528	Homok	22.2653	48.5642
cnl00016534	Igal	17.9331	46.85
cnl00016560	Károlyfalva	25.5831	46.3831
cnl00016579	Kismartonváralja	10.5167	47.8331
cnl00016840	Técső	23.3997	48.6831
cnl00016851	Tiszaszászfalu	23.0756	48.0942
cnl00016925	Baia de Arieș	23.2817	46.3806
cnl00005323	Almelo	6.6667	52.8667
cnl00011840	Montbrison	4.0497	45.6
cnl00016533	Huszt	48.1667	48.1667
cnl00016781	Simánd	21.4617	46.4247
cnl00016377	Albertfalva	19.0342	47.4481
cnl00016547	Jászó	20.9667	18.6667
cnl00016552	Kabold	16.3831	47.25
cnl00006913	Apt	5.4	43.88
cnl00007115	Bagnères-de-Bigorre	0.15	43.07
cnl00007560	Bolligen	7.5	46.9797
cnl00008600	Die	5.37	44.75
cnl00008738	Drogheda	-6.3497	53.7197
cnl00011148	Leutschau	20.6	49.03
cnl00011801	Mondoñedo	-7.1797	43.34
cnl00012161	Neufchâteau	5.7	48.35
cnl00013546	Saint-Flour	3.08	45.03
cnl00013606	Salò	10.5197	45.6
cnl00015356	Weissensee	11.07	51.1797
cnl00016203	Rovereto	11.0297	45.88
cnl00016253	Weihenstephan	11.7331	48.3997
cnl00016523	Hídalmás	47.0331	47.0497
cnl00016637	Mezőkövesd	20.9167	48.1831
cnl00016772	Sashalom	19.3194	47.5153
cnl00016584	Kisvárda	22.1331	48.3667
cnl00006992	Ascona	8.7697	46.1497
cnl00011326	Los Angeles	-118.25	34.0497
cnl00011584	Massa	10.15	44.02
cnl00013292	Roanne	4.07	46.03
cnl00013542	Sainte-Menehould	4.9	49.0797
cnl00009025	Eschershausen	9.63	51.6797
cnl00009051	Eton	-0.61	51.49
cnl00014567	Tempe	-111.9397	33.4297
cnl00001574	Wildberg	14.2919	48.4028
cnl00009763	Gurk	14.2897	46.8697
cnl00011619	Mendrisio	8.98	45.8697
cnl00016180	Polling	11.13	47.82
cnl00016356	Zierikzee	3.9197	51.6497
cnl00016927	Slunečná	14.4819	50.7456
cnl00016410	Beszterce	24.5	47.1331
cnl00026595	Blairgowrie	-3.3397	56.5917
cnl00007797	Buchau am Federsee	9.6197	48.07
cnl00015377	Wellington	-2.52	52.7
cnl00016408	Beregszász	22.6331	48.2
cnl00028107	Seregno	9.3331	46.0831
cnl00012338	Novara	8.6197	45.4397
cnl00000535	Hambach	10.2103	50.0992
cnl00002457	Elba	10.2794	42.7747
cnl00002799	Aylesbury	-0.8167	51.8167
cnl00003383	Vrana	15.5617	43.9558
cnl00005039	Buiksloot	4.9219	52.3989
cnl00007677	Braunau	12.6197	49.88
cnl00007737	Brionne	0.7197	49.2
cnl00007784	Porrentruy	7.08	47.42
cnl00008194	Châteauroux	1.7	46.82
cnl00008195	Château-Thierry	3.3997	49.0497
cnl00008732	Dreux	1.37	48.7297
cnl00009048	Étampes	2.1497	48.4297
cnl00009187	Forcalquier	5.78	43.9697
cnl00009344	Gap	6.08	44.57
cnl00009440	Gien	2.6297	47.7
cnl00009583	Gradisca d'Isonzo	13.5	45.89
cnl00009618	Gravesend, Kent	0.37	51.4297
cnl00009621	Great Yarmouth	1.74	52.6
cnl00009728	Guadalajara	-3.1697	40.63
cnl00010297	Chios	26.14	38.3697
cnl00011116	Leominster	-2.7297	52.2297
cnl00011391	Lunéville	6.5	48.6
cnl00012888	Pont-l'Évêque, Calvados	0.18	49.2997
cnl00012936	Poschiavo	10.05	46.3297
cnl00014436	Stuhlweißenburg	18.41	47.1897
cnl00014637	Thun	7.62	46.75
cnl00014913	Uzès	4.4197	44.02
cnl00015004	Verdun	5.3797	49.17
cnl00000063	Ashby de la Zouch	-1.4756	52.7456
cnl00000099	Bonaduz	9.4	46.8167
cnl00000357	Daventry	-1.1597	52.2597
cnl00000476	Sceaux	2.2831	48.7831
cnl00000488	Friedrichswerder	13.4	52.5167
cnl00000506	Weria	22.1997	40.5167
cnl00000613	Tannenberg	21.25	53.4942
cnl00001818	Alcalá de Guadaíra	-5.8497	37.3331
cnl00001841	Assche	4.2	50.8997
cnl00002314	Alcobaça	-8.9831	39.5497
cnl00002382	Blandford Forum	-2.1628	50.8614
cnl00002482	Geertruidenberg	4.8667	51.7
cnl00002811	Altstätten	9.55	47.3831
cnl00002883	Careggi	11.2467	43.8058
cnl00003156	Montreuil, Seine-Saint-Denis	2.45	48.8667
cnl00003653	Ainay-le-Château	2.6931	46.7117
cnl00006585	Veere	3.6697	51.5497
cnl00006685	Aire-sur-la-Lys	2.3997	50.63
cnl00006795	Altenberg	15.57	49.42
cnl00006866	Adrianopel	26.5597	41.6797
cnl00006907	Appenzell	9.4	47.3297
cnl00006953	Armentières	2.8797	50.6797
cnl00007359	Bermondsey	-0.08	51.5
cnl00007387	Béthune, Pas-de-Calais	2.6297	50.53
cnl00007405	Bex	7.0197	46.25
cnl00007734	Brindisi	17.67	40.5797
cnl00007739	Neu-Breisach	7.53	48.02
cnl00007787	Bruyères	6.7197	48.2
cnl00007996	Capri	14.24	40.5497
cnl00008041	Cascia	13.0197	42.7197
cnl00008125	Cavaillon	5.03	43.8297
cnl00008175	Charlottesville	-78.48	38.03
cnl00008187	Châteaudun	1.33	48.0797
cnl00000151	Berwick	-2.0067	55.7706
cnl00001077	Oczakow	31.5392	46.6139
cnl00008429	Crediton	-3.6497	50.78
cnl00002333	Arkadien	22.25	37.5831
cnl00008549	Delfshaven	4.45	51.8997
cnl00002853	Bistritz	24.5075	47.1408
cnl00008645	Dietikon	8.4	47.4097
cnl00008828	Eeklo	3.5697	51.1797
cnl00003140	Montserrat	1.8367	41.5931
cnl00009103	Faro	-7.9297	37.02
cnl00003700	Alburgh	1.3333	52.4339
cnl00004653	Este	11.6667	45.2331
cnl00009463	Glarus	9.07	47.03
cnl00005311	Stauropolis	28.7219	37.7089
cnl00009699	Groß Wartenberg	17.7197	51.2997
cnl00006949	Arles	4.6297	43.67
cnl00009746	Guingamp	-3.1497	48.5497
cnl00010036	Herisau	9.2697	47.3997
cnl00007076	Avesnes-sur-Helpe	3.93	50.1197
cnl00010398	Jauer	16.1797	51.0497
cnl00008276	Starigrad	15.4397	44.2897
cnl00008398	Cortemaggiore	9.9297	44.9797
cnl00010552	Kendal, Westmoreland	-2.75	54.32
cnl00008467	Cuenca	-5.03	42.0397
cnl00010877	La Réole	-0.03	44.5797
cnl00008712	Doué-la-Fontaine	-0.28	47.2
cnl00011469	Malans	9.57	46.9697
cnl00011510	Maribor	15.65	46.5497
cnl00009204	Fougères	-1.1997	48.35
cnl00011961	Moûtiers	6.53	45.4797
cnl00010811	Crommenie	4.7697	52.5
cnl00010839	Kürnbach	8.8497	49.0797
cnl00012231	Newport, Wight	-1.29	50.7
cnl00010893	Laaber	11.88	49.07
cnl00012619	Pápa	17.4697	47.3297
cnl00011857	Montefiascone	12.0297	42.53
cnl00012621	Příbram	14.0097	49.6897
cnl00012708	Périgueux	0.7197	45.1797
cnl00012006	Murano	12.3497	45.46
cnl00012878	Brody	18.76	53.8597
cnl00013118	Ravenstein	5.65	51.7997
cnl00013975	Sées	0.17	48.6
cnl00012958	Prato	11.0997	43.88
cnl00014394	Saint-Pol-de-Léon	-3.9797	48.6797
cnl00013089	Rapperswil	8.82	47.2197
cnl00014666	Dokkum	6.0	53.3297
cnl00013295	Rochefort	-0.9797	45.9297
cnl00014009	Senlis	2.58	49.2
cnl00014360	Château-du-Loir	0.4197	47.7
cnl00014628	Tholen	4.2197	51.53
cnl00014749	Tréguier	-3.2297	48.78
cnl00014961	Vasto	14.6997	42.1197
cnl00014993	Vendôme	1.07	47.7997
cnl00015013	Versoix	6.1697	46.28
cnl00015094	Villeneuve	6.9297	46.3997
cnl00015437	Wettingen	8.32	47.4697
cnl00015617	Woddstock, Oxford	-1.35	51.85
cnl00015703	Zakliczyn	20.82	49.8697
cnl00015989	Angoulême	0.15	45.6497
cnl00016272	Arnstein	7.8517	50.3103
cnl00016327	Ootmarsum	6.9	52.4097
cnl00016384	Aszód	19.4892	47.6514
cnl00016385	Bácsalmás	19.3258	46.1239
cnl00016394	Bán	18.2581	48.7183
cnl00016406	Békéscsaba	21.0906	46.6789
cnl00016407	Belényes	22.35	46.6497
cnl00016412	Bethlen	24.1794	47.1794
cnl00016416	Bikszád	23.4331	47.9331
cnl00016456	Derecske	21.5717	47.3533
cnl00016543	Jászárokszállás	19.9781	47.6444
cnl00016633	Mezőberény	21.0167	46.8167
cnl00016663	Nagyberezna	22.46	48.8919
cnl00016666	Aiud	23.7197	46.2997
cnl00016717	Palánka	19.3883	45.2506
cnl00016737	Petrőc	19.5881	45.3564
cnl00016762	Ruttka	18.925	49.1108
cnl00016794	Szamosújvár	23.8997	47.02
cnl00026594	Biggar	-3.5156	55.6217
cnl00015128	Vitry-le-François	4.58	48.7297
cnl00015330	Weinfelden	9.0997	47.57
cnl00015505	Williamsburg	-76.7	37.27
cnl00015686	Zaandijk	4.7997	52.4797
cnl00016375	Adony	18.8653	47.1189
cnl00016386	Bácsföldvár	20.0233	45.5264
cnl00016400	Bátaszék	18.7233	46.1969
cnl00016405	Békés	21.1331	46.7667
cnl00016409	Berettyóújfalu	21.55	47.2167
cnl00016514	Hajdúböszörmény	21.5167	47.6667
cnl00016549	Jolsva	20.2403	48.6278
cnl00016660	Nagyatád	17.3569	46.2297
cnl00016711	Ószivác	19.3742	45.7025
cnl00016719	Pankota	21.6867	46.3222
cnl00016750	Ráckeve	18.9475	47.1497
cnl00016478	Élesd	22.3967	47.0569
cnl00014478	Susa	7.0497	45.14
cnl00014623	Thiers	3.5697	45.85
cnl00015092	Villefranche-de-Rouergue	2.0497	44.35
cnl00015114	Vire	-0.8797	48.8297
cnl00015844	Viviers	4.6797	44.4797
cnl00016382	Arad	21.75	46.3297
cnl00016441	Tschapring	16.7056	47.4003
cnl00016661	Nagybánya	23.5667	47.6497
cnl00016664	Nagybiccse	18.5581	49.2228
cnl00002801	Agde	3.4831	43.3167
cnl00003722	Auburn	-76.5667	42.9331
cnl00004141	Merklingen	9.75	48.5167
cnl00006727	Alençon	0.08	48.4297
cnl00008120	Catanzaro	16.4297	38.92
cnl00016282	Brielle	4.1697	51.8997
cnl00016374	Ada	20.1219	45.8014
cnl00010926	Lancaster	-71.67	42.46
cnl00016383	Aranyosmarót	18.3967	48.3781
cnl00013206	Rethel	4.37	49.52
cnl00016401	Battonya	21.0164	46.2831
cnl00013957	Scigliano	16.3	39.13
cnl00016789	Stubnyafürdő	18.8633	48.8589
cnl00016404	Békásmegyer	19.05	47.6
cnl00016544	Jászberény	19.9167	47.5
cnl00001781	Mekka	39.8331	21.4167
cnl00002798	Montelimar	4.75	44.5667
cnl00003692	Adua	38.8997	14.1667
cnl00011117	León	-5.57	42.6
cnl00013561	Saint-Lô	-1.08	49.1197
cnl00013983	Senj	14.9	44.99
cnl00014477	Sursee	8.0997	47.17
cnl00005045	Alphen aan den Rijn	4.65	52.1331
cnl00001973	Dax	-1.0553	43.7069
cnl00002340	Au	11.5867	48.1197
cnl00016788	Stájerlakanina	21.8531	45.0917
cnl00002845	Benešov	14.6883	49.7828
cnl00002939	Blasenstein-Sankt-Nikolaus	17.2628	48.4858
cnl00003246	La Rivour	4.0742	48.2972
cnl00016402	Bátyú	22.6339	48.2006
cnl00016537	Ilosva	23.0375	48.3169
cnl00016695	Nyírbátor	22.1297	47.8353
cnl00002501	Güns	2.0581	47.3817
cnl00002825	Athlone	-7.95	53.4331
cnl00003467	Arundel, Sussex	-0.5539	50.8542
cnl00016542	Jászapáti	20.14	47.5133
cnl00000044	Arensdorf	14.2519	52.4256
cnl00000093	Baeza	3.4667	37.9831
cnl00000787	Kutejno	30.3167	54.4667
cnl00002842	Battice	5.8167	50.6331
cnl00002966	Elis	21.5	37.6667
cnl00003564	Montagnana	11.3	46.3331
cnl00003710	Ann Arbor, Mich.	-83.7481	42.2814
cnl00016570	Kisbér	18.0267	47.5014
cnl00003308	Sorèze	2.0669	43.4539
cnl00004356	Schinznach	8.1692	47.45
cnl00016858	Topolya	19.635	45.8089
cnl00001364	Spa	5.8667	50.4831
cnl00003626	Prevesa	7.4331	44.4167
cnl00005038	Westgraftdijk	4.7997	52.5497
cnl00001603	Amakusa	130.1167	32.3997
cnl00000902	Luneray	0.9142	19.8292
cnl00001404	Wolverhampton	2.1331	52.5831
cnl00002849	Berg	9.4075	47.4867
cnl00003606	Bétharram	-0.2081	43.1306
cnl00003747	Bennington, Vt.	-73.2081	42.8908
cnl00005402	Chalons-sur-Sa^one	4.8497	46.7997
cnl00003448	Zabludów	23.3331	53.0167
cnl00005234	Saint-Lô (Le Rocher-de-la-Liberté)	1.0831	49.1167
cnl00005282	Leiderdorp	4.5331	0.35
cnl00005327	Ameland	5.7533	53.4503
cnl00003605	Bègles	-0.5478	44.8083
cnl00000153	Bessastadir	-21.9956	64.1056
cnl00000024	Alvisopoli	12.9192	45.8025
cnl00002004	Mooréa	-149.8331	-17.5331
cnl00003577	Stekelberg-Schloss	9.6203	50.3367
cnl00002899	Ceneda	12.2931	45.9767
cnl00000234	Bulaq	31.2306	30.0531
cnl00017735	Gorgonzola	9.1997	45.46
cnl00002388	Borgo	11.4497	46.0497
cnl00028125	Bonate Sotto	9.72	45.6797
cnl00028797	Montbéliard	6.7997	47.52
cnl00002622	Ostrog	26.5256	50.3283
cnl00001479	Vaucluse	6.6831	47.25
cnl00002451	Écija	5.0792	37.5408
cnl00011034	Lavaur	1.82	43.7
cnl00011340	Louth	-0.02	53.3697
cnl00014334	Stembert	5.9	50.5797
cnl00006580	Nérac	0.35	44.13
cnl00007338	Bergerac	-0.4797	44.85
cnl00011592	Matha	-0.32	45.8697
cnl00013502	Sacramento	-121.4697	38.56
cnl00007714	Brest	-4.29	48.24
cnl00009569	Göttweig	15.6197	48.3597
cnl00014343	Sterzing	11.4297	46.89
cnl00009434	Gex	6.07	46.3297
cnl00009683	Großenhain	13.65	51.28
cnl00006728	Alenquer	-9.0197	39.0
cnl00008157	Châlon-sur-Saône	4.75	46.78
cnl00009161	Fleurus	4.4297	50.4797
cnl00012156	La Neuveville	7.0997	47.07
cnl00008103	Chambéry	5.9	45.6
cnl00013556	Saint-Jean-d'Angély	-0.52	45.95
cnl00014365	Saint-Maixent-l'École	-0.2	46.42
cnl00032939	Frankenberg	13.3378	50.9106
cnl00028108	Verdello	10.0606	46.0139
cnl00020603	Barbuñales	-0.8331	42.0167
cnl00025181	Deensen	9.7167	51.8667
cnl00032944	Sainte Suzanne	55.6056	-20.9039
cnl00022893	Château Landon	2.7	48.1497
cnl00018436	Potosì	-65.75	-19.5831
cnl00020393	Wolczyn	18.0567	51.0181
cnl00019575	Villeneuve de Berg	4.5	44.5497
cnl00006683	Aigues-Mortes	4.1797	43.57
cnl00019608	Menetou-Salon	2.0497	47.2331
cnl00021181	Kibworth-Harcourt	-0.9831	52.5331
cnl00032949	Vila de Cruces	-8.3328	42.7767
cnl00011705	Mikulov	16.64	48.81
cnl00021359	Siètamo	-0.2908	42.1197
cnl00021820	Avilès	-5.9081	43.5558
cnl00021734	Chatillon-Coligny	2.85	47.8331
cnl00023467	Somasca	9.4292	45.8108
cnl00020640	Villacastin	-4.4133	40.7806
cnl00026392	Hiltpolstein	11.3206	49.6597
cnl00032957	Petznick	13.2831	53.1667
cnl00031129	Reudnitz	12.4	51.3331
cnl00021061	Guise	9.1997	45.46
cnl00023531	Shorkot	72.4	30.5
cnl00030681	Brandenburg	12.4197	52.38
cnl00019145	Saint-Hippolyte	2.7667	49.95
cnl00019169	Patan	72.1167	23.8331
cnl00033507	La Ferrière-aux-Etangs	-0.5331	48.6667
cnl00033394	Copșa Mică	24.3	46.1331
cnl00007230	Baza	-2.77	37.4797
cnl00008069	Castellane	6.5197	43.85
cnl00008134	Cefalù	14.0197	38.03
cnl00010967	La Ferrière	-2.6	48.1497
cnl00011871	Monterrey	-7.4197	41.95
cnl00015846	Lantenac	-2.6506	48.1342
cnl00008531	Dautenstein	7.95	48.2997
cnl00008198	Châtellerault	0.53	46.7997
cnl00003552	Nedelišce	16.3831	46.3831
cnl00004845	Rakow	21.0831	50.6831
cnl00016588	Komját	18.1667	48.1497
cnl00016556	Kapuvár	16.3831	47.5831
cnl00000162	Cieza	1.4167	38.2331
cnl00003213	Pocátky	15.2331	49.25
cnl00003342	Tartakow	24.3983	50.4622
cnl00016653	Monyorókerék	16.4667	45.1831
cnl00027751	Isola di Gorgona	9.8989	43.4289
cnl00000633	Irún	1.8	43.3331
cnl00000685	Hugli	88.4	88.4
cnl00000746	Kidderminster	2.25	52.375
cnl00001486	Tschlin	40.8667	46.8667
cnl00001614	Carouge	7.0219	46.1831
cnl00001621	Coucy-le-Château	32.5	49.5167
cnl00001910	Condé-sur-Noireau	0.55	48.85
cnl00002928	Saint-François-Cuburien	3.8481	48.6003
cnl00002934	Carentan	1.25	49.2997
cnl00003043	Jaroslawl	38.3994	57.9503
cnl00003088	Loudéac	2.7539	48.1778
cnl00003127	Mont Saint-Clair	3.0681	43.4014
cnl00003142	Tavistock	50.5497	4.1444
cnl00003216	Pontorson	1.5067	48.5531
cnl00003222	Port-Royal-des-Champs	2.0158	48.7442
cnl00003836	Corlay	3.0556	48.3181
cnl00004921	Dđakovo	18.4108	45.3114
cnl00005136	Heiligeswegs Poort	4.8897	52.3672
cnl00016443	Csíksomlyó	35.8167	46.3667
cnl00016643	Mindszent	20.1667	40.5167
cnl00016684	Nagyszőlős	22.5028	48.1331
cnl00016823	Szilágycseh	23.2867	47.4181
cnl00016867	Tótpróna	18.7667	48.9167
cnl00016880	Újverbász	19.8317	45.2642
cnl00016936	Cava de' Tirreni	52.5497	40.7
cnl00027044	L'Isle-sur-la-Sorgue (Vaucluse)	5.0497	45.9167
cnl00005050	Sterrenberg	7.6331	50.2131
cnl00016738	Petrozsény	232.3331	45.4167
cnl00005119	Castre lez-Hal	2.3331	48.85
cnl00005314	Nieuwekuik	5.1831	51.7
cnl00000128	Neudietendorf	10.58	50.9125
cnl00000692	Hrappsey	22.6	66.1667
cnl00000783	Kuala Lumpur	101.7	3.1331
cnl00001656	Lugny	46.4731	4.8103
cnl00001985	Dorset	2.4331	50.7167
cnl00002290	Pontefract	12.5	53.6831
cnl00002606	Newark-on-Trent	0.8092	53.0758
cnl00002877	Cazères	43.2069	1.0867
cnl00002932	Cupar Fife	3.0167	56.5331
cnl00003086	Lordelo	8.3831	41.3831
cnl00003214	Poiano di Valpantena	11.0156	45.4722
cnl00003228	Promenthoux	6.2683	46.3919
cnl00003561	Pinczów	20.5331	50.5331
cnl00005214	La Garde-Adhémar (Château de La Garde-Adhémar)	4.75	44.3997
cnl00005221	Les Herbiers	1.0167	46.8667
cnl00016635	Mezőkászony	22.4497	48.25
cnl00000711	Luarca	6.5331	43.5497
cnl00003287	Sutschau	19.0	49.1
cnl00003304	Žólkiewka	22.8331	50.8997
cnl00005329	Ijsselstein	5.0497	52.0167
cnl00005211	Bonne-Fontaine (Ardennes)	4.2331	49.7831
cnl00006379	Lovendegem	33.0	51.1
cnl00016435	Csaca	18.7831	48.4331
cnl00016686	Nagytapolcsány	48.1667	48.1667
cnl00016710	Ószéplak	18.0167	46.8997
cnl00016714	Özörény	20.3667	48.5331
cnl00016740	Poprád	49.0497	49.0497
cnl00016744	Pribóc	21.7667	42.6
cnl00016755	Rákosszentmihály	19.1669	47.8542
cnl00016764	Sajósolymos	24.6167	47.0331
cnl00016779	Sepsiszentgyörgy	25.7831	45.85
cnl00016829	Szolyva	22.9831	48.5497
cnl00016835	Tamási	18.05	47.0331
cnl00016848	Tiszafüred	20.76	474.1689
cnl00016879	Újszentanna	21.5	45.0331
cnl00016910	Zsablya	20.3917	45.3697
cnl00019634	Sèvres	2.2167	45.5
cnl00027033	Craon	0.95	47.85
cnl00027937	Arenas de San Pedro	5.0908	40.2089
cnl00016644	Miskolc	20.7831	46.1
cnl00016485	Erzsébetváros	19.5	47.5
cnl00003206	Penzance	5.5331	50.1167
cnl00005037	Rotterdam-Ijsselmonde	4.5497	51.8831
cnl00006443	Góra Kalwaria	21.3997	51.9831
cnl00006523	Gościkowo	15.5331	0.3667
cnl00016432	Celldömölk	170.1331	47.25
cnl00016463	Devecser	17.3331	47.1
cnl00016526	Hőgyész	23.2831	48.1667
cnl00016532	Hosszúfalu	17.05	47.1
cnl00016881	Újvidék	45.2642	19.8317
cnl00016907	Zirc	52.35	47.2631
cnl00028111	Montsant	0.8	41.2997
cnl00032941	Tulloch	-2.3342	57.3725
cnl00022063	Bargemont	6.5503	43.6197
cnl00000606	Halifax	-1.8667	53.7331
cnl00028110	Lallio	9.6314	45.6656
cnl00016392	Blaj	23.9142	46.1753
cnl00003529	Ostiglia	11.1331	45.7831
cnl00016445	Csillaghegy	19.0331	47.5831
cnl00016540	Jánoshalma	18.3167	46.2831
cnl00016554	Kápolnokmonostor	23.6831	5.2167
cnl00016415	Bihardiószeg	17.6442	48.2053
cnl00016511	Gyula	17.6331	47.6831
cnl00000021	Alet-les-Bains	15.4167	42.9975
cnl00016914	Zilina	18.73	49.2194
cnl00000189	Cayenne	52.3331	4.9331
cnl00002292	Port-au-Prince	72.3328	18.55
cnl00003153	Montilla	4.6331	37.5831
cnl00003494	Clairlieu	6.1167	48.6597
cnl00004901	Veszprem	17.9131	47.0928
cnl00005153	nan	-2.4247	51.53
cnl00019513	Almodovar del Campo	4.1667	38.7183
cnl00026589	Barrhead	-4.2167	55.7997
cnl00002605	Neustadt, Mettau	16.1517	50.3439
cnl00002861	Bonne-Fontaine-en-Tiérache	4.2331	49.7831
cnl00002921	Cowbridge	5.0	51.46
cnl00003099	Madeley	-0.3831	52.5219
cnl00003590	Világos Vár	21.6281	46.2619
cnl00020013	Vicchio	28.0	43.9331
cnl00000181	Boos	48.0667	48.0667
cnl00000802	Lahaina	-156.6667	20.8831
cnl00004571	Luslawice	20.8167	49.85
cnl00026607	Carron	-9.8331	53.0331
cnl00026572	Aberfeldy	4.0	56.6117
cnl00026599	Broughty Ferry	8.0	56.4667
cnl00000247	Kronoberg	14.4331	56.7831
cnl00001074	Obertheres	10.4478	50.2
cnl00001715	Isla de León	-5.5667	42.6
cnl00002030	Fort Marlborough	102.2517	-3.7867
cnl00003026	Hasselt, Overijssel	6.0831	52.5831
cnl00003136	Altacomba	5.8392	45.7522
cnl00003895	Falher	-117.2014	55.7231
cnl00003917	Freeport, NY	-73.5875	40.6539
cnl00004000	Hingham, Mont.	-110.4231	48.5556
cnl00004201	Neutitschein	25.1453	49.5944
cnl00004435	Topsham, Devon	-3.4667	50.1831
cnl00004454	Valença, Minho	-8.4497	42.0167
cnl00004548	Ephrata, Pa.	-76.1831	40.1831
cnl00004554	Indianapolis, Ind.	-86.15	39.7667
cnl00018665	Monte Compatri	12.7331	0.2556
cnl00024834	La Ferté sous Jouarre	3.1331	48.9831
cnl00026737	Restalrig	-3.1506	55.9594
cnl00028329	Moià, Catalunya	2.1	41.8167
cnl00001197	Quiloa	39.5128	8.96
cnl00003616	Châtelet	0.25	47.1667
cnl00004415	Syracuse, NY	-76.15	43.0497
cnl00023772	Darfo Boario Terme, Bergamo	10.1831	45.8997
cnl00026580	Aquhorties	-2.1631	57.0578
cnl00026756	Tighnabruaich	-5.2331	56.1497
cnl00002008	Campazas	5.4917	42.1417
cnl00003281	Cartuja de la Escalera de Dios	0.8094	41.2567
cnl00003433	West-Wycombe	-0.7992	51.6431
cnl00003472	Barlanga	-2.85	41.4667
cnl00004509	Westmead	150.9817	-33.8081
cnl00010377	Jaén	-3.7831	37.7667
cnl00025526	Östra Ämtervik	13.1997	13.1997
cnl00028140	Martorell, Catalunya	1.9331	41.4831
cnl00028150	Mataró, Catalunya	2.45	41.5331
cnl00001519	Vepery	80.2644	13.8494
cnl00002838	Barbastro	0.1264	12.0356
cnl00002970	Epila	-1.0	41.0
cnl00003047	Irache	-2.0431	42.6494
cnl00004024	Irkutsk	104.2997	52.2831
cnl00004486	Werba	25.6092	50.4397
cnl00000096	Banbury	1.0	52.06
cnl00000265	Capolago	7.0	45.9028
cnl00001612	Bourg-Fontaine	1.1667	49.5667
cnl00002263	Oahu	-157.9667	21.4667
cnl00002972	Escharlis	90.5231	47.9492
cnl00003444	Wrexham	6.0	53.0397
cnl00003545	Monastero di San Giacomo di Pontida	9.5042	45.7306
cnl00003738	Bassac	-1.0	45.6667
cnl00006428	San Cesario sul Panaro	11.0292	44.57
cnl00023293	Crotone	17.1167	9.0831
cnl00001609	Basra	47.3167	30.5
cnl00028153	Granollers, Catalunya	8.0	41.6
cnl00028180	Argenteuil, France	2.25	48.95
cnl00000883	Lothbury	-0.0892	51.5144
cnl00001273	Saint-Gervais	6.7167	45.4331
cnl00002453	Edmonton	-113.5	53.5331
cnl00002967	Kloster Emmeran	12.0928	49.0144
cnl00000681	Holy-Rood-House	-3.1722	55.9525
cnl00001220	Rheinfels	7.7042	50.1539
cnl00001634	Homberg	6.7092	51.2192
cnl00003277	Cernache dos Alhos	8.4681	40.1403
cnl00004551	Grönland	-40.0	70.0
cnl00006457	Ląd	17.6497	46.1331
cnl00004375	Singen, Hohentwiel	8.8331	47.7667
cnl00000218	Camburg, Saale	11.6997	51.5
cnl00000330	Burnham-on-Crouch	0.6167	52.45
cnl00000429	Feldkirch	8.5994	47.2331
cnl00000464	Grimmenstein	10.7042	50.9456
cnl00000569	Halle, Westfalen	8.3667	52.0667
cnl00000624	Herve	5.7997	5.6331
cnl00001162	Plan-de-la-Tour	6.5497	43.3331
cnl00001294	Sampaloc	121.5831	14.1667
cnl00001362	Shacklewell	-0.0717	51.5567
cnl00001595	Zaslav	26.8	50.0
cnl00002202	Werther, Westfalen	8.4167	52.0831
cnl00002827	Mérida	6.3497	38.8831
cnl00003028	Hassenstein	13.2567	50.445
cnl00003141	Abbazia di San Salvatore Maggiore	12.9767	42.2867
cnl00003170	Saint Neot's	-0.2667	52.2331
cnl00003324	Stonor	-0.9389	51.6017
cnl00003918	Freiburg, Schlesien	16.3167	50.85
cnl00003982	Heidenheim, Weissenburg-Gunzenhausen	10.75	49.0167
cnl00004072	L'Hópital, Moselle	6.7331	49.1497
cnl00004088	Leichlingen	7.0167	52.6
cnl00004203	Newburyport, Mass.	-70.8831	42.8167
cnl00004285	Princeton, NJ	-74.65	40.35
cnl00004381	Sommersdorf, Burgoberbach	10.5867	49.2014
cnl00004427	Thaur	11.4667	11.4667
cnl00010250	Huete	-2.68	40.13
cnl00016341	Thabor	6.2306	45.1142
cnl00022591	San Cerbone	10.8878	43.0492
cnl00026600	Broxburn	4.0	55.9297
cnl00026729	Pollockshaws	-4.29	55.8217
cnl00032599	Carmel	-121.9167	36.5497
cnl00001382	Smithfield	-0.1017	51.5189
cnl00001724	Schönbrunn	16.3119	48.1844
cnl00001908	Columbus, Ohio	-83.0	39.9667
cnl00002239	Rüdenhausen	10.3497	48.7667
cnl00002829	Königsaal	14.3931	49.9739
cnl00003436	Wielkanoç	19.9167	50.3331
cnl00003442	Workington	-3.5497	54.5
cnl00004305	Ridgewood, NJ	-74.1167	40.8167
cnl00005376	Drillenburg	8.2831	50.7331
cnl00006632	Adelaide	138.5994	-34.9294
cnl00017369	Dignano 	12.9397	46.0839
cnl00000300	Chaulons	4.365	48.9575
cnl00002057	Greenfield, Mass.	-72.5997	42.5831
cnl00002947	Dobromil	22.7831	49.5667
cnl00003045	Ingihoul	5.4331	50.5331
cnl00003071	Lasczów	23.6994	50.5317
cnl00003286	Schenkenhorst	13.4831	51.1667
cnl00003409	Villabrágima	5.1114	41.8253
cnl00004202	New Brunswick, NJ	-74.45	40.4831
cnl00004552	Houston, Tex.	-95.3828	29.7667
cnl00026315	Santa María de Guía	-15.5831	28.1331
cnl00026593	Berwick upon Tweed	-2.0	55.7667
cnl00026596	Bo'ness	-3.6	53.1331
cnl00026620	Dalkeith	-3.0497	55.0667
cnl00026700	Lochaber	-5.6303	56.8067
cnl00001959	Burg Friedberg	8.7528	50.3417
cnl00018469	Île d'Arz	-2.7994	47.5831
cnl00031958	Auckland	174.7631	-36.8483
cnl00003916	Frederick, Md.	-77.4106	39.4139
cnl00003942	Gloucester, Mass.	-70.6831	42.6167
cnl00004611	Bogenšperg	14.8569	46.0231
cnl00003735	Bangor, Gwynedd	-4.1331	53.2331
cnl00008080	Castellón de la Plana	-0.03	39.9794
cnl00025251	San Giovanni La Punta	15.0997	37.5831
cnl00002903	Nossa Donna Castelmur	9.5617	46.3392
cnl00003096	Luklawic	14.8592	52.7892
cnl00022257	Nova Gorica	13.65	43.95
cnl00026734	Pulteneytown	-3.0881	58.4381
cnl00003075	Leez Priory	0.4669	51.8392
cnl00028032	Puigcerdà	2.9331	423.0
cnl00000693	Huahinc	-151.0	-16.75
cnl00001190	Pulawy	21.9667	51.4167
cnl00017398	Saint James	-1.3167	48.5167
cnl00001166	Poczajowsk	25.2217	50.0044
cnl00002862	Bosworth	-1.4497	52.6167
cnl00003410	Vilafranca del Penedès	1.7	41.5167
cnl00004991	Löwenstein	5.0214	51.8119
cnl00003196	Palmyra, NY	-77.2331	43.0631
cnl00004181	Nachitschewan	45.5	39.3331
cnl00016419	Bonyhád	18.5167	4.2831
cnl00020286	Vangadizza di Legnago	11.3019	45.1933
cnl00031907	Denver	-104.0164	39.7831
cnl00000309	Korsika	9.0831	42.1497
cnl00003411	Villagarcia de Campos	-5.2	41.7831
cnl00003830	Columbia, SC	-81.0328	34.0
cnl00003854	Delmar, NY	-73.8367	42.6181
cnl00027542	Cholet	0.8828	47.0669
cnl00031120	Jakarta	106.8167	-6.1217
cnl00008981	Épinal	6.45	48.1792
cnl00016769	Sárospatak	21.5794	48.32
cnl00032844	Berg	11.3494	5.2717
cnl00006723	Aldenburg	8.07	53.53
cnl00007729	Brig	7.98	46.32
cnl00016102	Kirchheim am Ries	10.4	48.88
cnl00016057	Fürstenfeld	11.25	48.1831
cnl00006884	Annaberg-Lungötz	13.4294	47.52
cnl00007731	Brighton	-71.1594	42.35
cnl00008100	Castres	2.25	43.6
cnl00008224	Cres	14.41	44.96
cnl00009280	Mieroszów	16.1794	50.67
cnl00009313	Księży Lasek	21.1994	53.42
cnl00009862	Hamm am Rhein	8.4294	49.7294
cnl00010199	Homburg	7.53	50.92
cnl00010990	Lębork	17.75	54.5494
cnl00011615	Merklingen	8.8494	48.77
cnl00011993	Mündelheim	6.6794	51.35
cnl00012169	Neuhausen an der Erms	9.3	48.53
cnl00012470	Ofen	10.58	47.7
cnl00012861	Pogliano Milanese	8.98	45.53
cnl00013117	Ravenstein	9.5094	49.3994
cnl00013153	Reichenbach im Vogtland	12.32	50.6094
cnl00013499	Sachsenhausen	8.6994	50.1
cnl00013843	Schneeberg	9.25	49.64
cnl00013857	Schönberg	6.9194	49.77
cnl00013916	Schwalbach	8.47	50.5
cnl00014149	Sonderhausen	12.5	48.03
cnl00014324	Steinfurth	10.0194	54.2994
cnl00015303	Weidenbach	10.63	49.2
cnl00015763	Zinna	11.73	50.92
cnl00006966	Arnsdorf	16.07	51.25
cnl00007100	Baden	8.3	47.4694
cnl00010262	Husum	19.17	63.3294
cnl00010598	Kirchheim am Neckar	9.14	49.0494
cnl00011201	De Lier	4.2694	51.9694
cnl00011531	Alūksne	27.05	57.42
cnl00011909	Montserrat	-0.6	39.3694
cnl00012220	Newark	-74.18	40.74
cnl00013412	Rougemont-le-Château	6.9694	47.7294
cnl00014155	Sonnenberg	8.2694	50.1
cnl00015323	Weilheim an der Teck	9.5294	48.6194
cnl00016190	Reichenbach	12.3494	49.1831
cnl00006694	Alba	8.0294	44.7
cnl00008511	Damme	3.2797	51.25
cnl00013152	Reichenbach an der Fils	9.47	48.7194
cnl00015390	Wenden	7.87	50.9694
cnl00007196	Barcino	16.9494	54.27
cnl00011319	Loretto	-78.64	40.5094
cnl00011692	Michaelsberg	9.15	49.2994
cnl00012234	Newport Pagnell	-0.7194	52.0794
cnl00006786	Altdorf	8.65	46.88
cnl00007206	Batenburg	5.6294	51.82
cnl00007572	Bommel	4.28	51.7194
cnl00008812	Ebersbach	9.5294	48.7194
cnl00008872	Eichstädt	13.1194	52.7
cnl00008946	Ems	9.4494	46.8294
cnl00009721	Grünwald	11.7794	49.63
cnl00010034	Héricourt	6.75	47.5794
cnl00010105	Hirschfeld	7.25	49.8994
cnl00010170	Burg Hohenstein	8.05	50.1794
cnl00011176	Lichtenstein	9.25	48.3994
cnl00011222	Lincoln	-79.8494	40.2894
cnl00011936	Mörsburg	8.7694	47.5394
cnl00011947	Moosburg	9.5994	48.0794
cnl00011973	Mühlbach	9.7594	49.96
cnl00012580	Ostrog	19.03	42.67
cnl00012717	Péronne-en-Mélantois	3.1694	50.57
cnl00013241	Richmond	-0.28	51.45
cnl00013435	Rechkalovo	22.01	54.4694
cnl00013668	Sankt Johann	12.4294	47.52
cnl00013955	Schwyz	8.65	47.02
cnl00015618	Woodstock	-76.8194	39.3694
cnl00008146	Cesana	6.78	44.95
cnl00008953	Pokrzywno	18.85	53.45
cnl00013592	Saint-Vincent	5.48	49.6794
cnl00006789	Röthenbach bei Altdorf	11.3594	49.39
cnl00006837	Ambert	3.75	45.5494
cnl00006943	Argentan	0.02	48.75
cnl00007030	Bensheim-Auerbach	8.6194	49.7
cnl00007075	Avesnes-les-Aubert	1.9694	50.5494
cnl00007420	Biburg	10.7694	48.38
cnl00007425	Biebrich	7.95	50.32
cnl00007492	Blankenborn	7.9694	49.13
cnl00007848	Buren	5.33	51.92
cnl00009003	Erla	12.8	50.52
cnl00011165	Lichtenberg	12.8694	52.88
cnl00012641	Pampelonne	2.25	44.1194
cnl00013157	Reichenstein	9.55	48.25
cnl00013362	Gross Rosenburg	11.9	51.92
cnl00013413	Rougemont	4.25	47.67
cnl00014901	Washington	-120.5	47.5
cnl00015080	Villagarcía	-7.12	42.9794
cnl00015476	Wissenbourg	7.95	49.03
cnl00008813	Ebersberg	15.8942	48.2
cnl00008990	Erbach	8.08	50.02
cnl00010596	Kirchheim	7.5	48.6094
cnl00014094	Skalice	17.03	50.6494
cnl00014302	Stein bei Nürnberg	11.0094	49.4094
cnl00014952	Varennes-sur-Loire	0.05	47.2294
cnl00009380	Geisslingen	8.38	47.6194
cnl00009462	Glaris	9.7694	46.7294
cnl00009877	Aizpute	21.6	56.7194
cnl00010716	Königsberg in Franken	10.58	50.0794
cnl00013373	Rossbach	7.4194	50.5794
cnl00014158	Sankt Georgen am Längsee	14.4294	46.78
cnl00015347	Weissenbrunn	11.3494	50.2
cnl00007868	Burgos	9.0	40.38
cnl00010599	Kirchheim an der Weinstrasse	8.1794	49.5394
cnl00012940	Pössneck	11.5994	50.7
cnl00014305	Stein	15.08	48.4294
cnl00008079	Città di Castello	12.23	43.45
cnl00032121	Heiligkreuz bei Hall	11.4939	47.2867
cnl00032500	Grünberg	8.9494	50.6
cnl00026185	Mora	22.9331	37.9331
cnl00012001	Münster	8.8694	49.92
cnl00031851	Lichtenheim	11.3517	48.6944
cnl00006709	Albion	-84.75	42.24
cnl00007617	Boston	-0.02	52.9794
cnl00007826	Büderich	6.7	51.25
cnl00008389	Coria	-6.5331	39.9831
cnl00008817	Eberstadt	9.32	49.1794
cnl00008862	Ehingen	6.7	51.3594
cnl00009220	Frankenthal	12.4494	49.3694
cnl00009459	Gladbach	6.9694	51.1194
cnl00009965	Heilberg	9.9194	48.9794
cnl00010669	Sørå	10.4294	57.17
cnl00010871	La Motte	0.15	49.13
cnl00011057	Lichtenberg	10.3	52.13
cnl00011943	Moscow	-117.0	46.7294
cnl00013629	San Marino	-118.12	34.1194
cnl00013858	Schönberg	9.3	50.85
cnl00013979	Séez	6.7994	45.6194
cnl00014316	Steinau an der Strasse	9.46	50.31
cnl00014402	Strasburg	19.3994	53.25
cnl00015564	Wittenberg	9.97	53.42
cnl00004555	Kirchheim, Elsass	7.4831	48.6
cnl00016563	Keresd	24.6939	46.1439
cnl00026962	Larressore	0.4331	43.3667
cnl00029699	Kyōto	135.7667	35.0167
cnl00031845	Oberdöbling	16.35	48.2331
cnl00009874	Katlenburg-Duhm	10.0894	51.67
cnl00010214	Horn	8.9494	51.8694
cnl00012591	Oetingen	4.07	50.77
cnl00006708	Albi	2.0894	43.56
cnl00009189	Forchheim	8.32	48.9792
cnl00008295	Clermont	2.3994	49.38
cnl00006828	Altstetten	11.2794	48.2994
cnl00008816	Ebersdorf bei Coburg	11.15	50.3294
cnl00009049	Etival-les-Le Mans	0.08	47.95
cnl00009410	Gerau	10.3	48.9794
cnl00009729	Guadalajara	-103.3494	20.66
cnl00010474	Kalisz pomorski	15.5394	53.17
cnl00013651	Saint-Blaise-la-Roche	7.1694	48.3994
cnl00015321	Weilheim	8.23	47.67
cnl00007790	Brzesc Kujawski	18.8994	52.6
cnl00003897	Farnborough, Hampshire	0.75	51.2667
cnl00027181	Manila	121.0	14.5831
cnl00030258	Bergen	5.32	60.39
cnl00030309	Hobart	147.3167	-42.8667
cnl00033782	Grünwald	8.2394	47.8419
cnl00026710	Montrose	-2.45	56.7
cnl00029549	Melbourne	144.9631	-37.8133
cnl00028016	Marclaz	6.445	46.3542
cnl00016338	Stein	4.7831	52.0
cnl00005359	Karlovac	15.5556	45.4931
cnl00016587	Komárom	18.12	47.7292
cnl00026683	Kirkbride	-3.8067	55.3317
cnl00029874	Kingston	-76.5	44.2192
cnl00000179	Oliva	-1.4667	42.3717
cnl00016709	Orșova	22.3964	44.7264
cnl00012617	Oxford	-84.75	39.5092
cnl00023189	Rieux	-2.1	47.6
cnl00027144	Rieux-Volvestre	1.1997	43.0042
cnl00003242	Ribnica	14.8831	45.7331
cnl00027255	Rambouillet	1.8331	48.6497
cnl00029133	Rawitsch	16.8575	51.6092
cnl00029894	Palo Alto	-122.1381	37.4292
cnl00029998	Portland	-70.1831	43.6331
cnl00003253	Rohrbach	17.1656	48.4581
cnl00020742	Bèze	5.2667	47.4667
cnl00021300	Bierhelderhof	8.6994	49.3892
cnl00021740	Cis-Jordan	35.3831	32.0
cnl00022000	Biville	-1.8206	49.6131
cnl00024618	Blangy-sur-Bresle	1.6292	49.9319
cnl00025562	Blainville-sur-Orne	-0.2989	49.2292
cnl00027248	Corbie	2.2994	49.5394
cnl00033836	São Luís do Maranhão	-44.2667	-2.5167
cnl00006476	Bieniszew	18.1831	52.2831
cnl00002079	San Vito al Tagliamento	12.8667	44.9278
cnl00017620	Blacé	4.6453	46.0317
cnl00021728	Black Bourton	-1.5894	51.7331
cnl00027128	Blangy-sur-Ternoise	2.1706	50.4217
cnl00032283	Berlin-Schöneberg	13.3667	52.4831
cnl00015994	Au/Inn	12.3275	48.1667
cnl00018239	Besse-sur-Issole	6.1767	43.3492
cnl00033522	Bredenau	9.0831	53.1167
cnl00033813	Samtskhé-Djavakhétie	43.1667	41.6167
cnl00017334	Abbecourt	2.1667	49.35
cnl00026906	Saint-Riquier	1.95	50.1331
cnl00027105	Saint-Ouen-l'Aumône	2.1167	49.0497
cnl00027250	Savigny-le-Vieux	-1.05	48.5167
cnl00027601	Thônes	6.3331	45.8831
cnl00027710	Valmont	0.5167	49.75
cnl00028097	Tonneins	0.3	44.3831
cnl00029117	Supraśl	23.3331	53.2167
cnl00029257	Bowling Green	-83.65	41.3667
cnl00029377	Antofagasta	-70.4	-23.6497
cnl00029889	Bozeman	-111.0331	45.6831
cnl00030398	Berlin-Rudow	13.5	52.4167
cnl00030412	Bath-Yam	34.75	32.0167
cnl00030516	Vaihingen	9.1167	48.7331
cnl00030552	Berlin-Karlshorst	13.5256	52.4825
cnl00031158	Schönhausen	12.0331	52.5831
cnl00031259	Adelholzen	12.6167	47.8167
cnl00031625	Schmiedeberg	13.9517	53.1428
cnl00031986	Belo Horizonte	-43.9331	-19.9167
cnl00032278	Borkau	16.17	51.6456
cnl00032745	Budwitz	15.8078	49.0506
cnl00018054	Étival	5.7992	46.8331
cnl00023736	Bišumuiža	24.1064	56.9489
cnl00024820	Bey-sur-Seille	6.3428	48.8044
cnl00027058	Radepont	1.3331	49.35
cnl00027692	Ribeauvillé	7.3167	48.2
cnl00032292	Parramatta City	151.0	-33.8167
cnl00032420	Raiding	16.5331	47.5667
cnl00032493	Dzierżoniów	16.6494	50.7331
cnl00000163	Bresse	5.25	46.4167
cnl00000413	Eastham	0.0331	51.5331
cnl00000453	Etival	5.7994	46.5
cnl00000546	Gertenbach	9.8044	51.38
cnl00000617	Handzame	3.0	51.0331
cnl00000842	Lichtensteig	9.0831	47.3167
cnl00000872	Le Locle	6.7481	47.0567
cnl00001355	Shannon	-8.8831	52.7167
cnl00001438	Saint-Pons	2.7667	43.4831
cnl00001575	Whitehall	-0.1264	51.5042
cnl00001751	Juliusburg	17.3331	51.25
cnl00001759	Kidderpore	88.3194	22.53
cnl00002130	Troizeni	23.35	37.4831
cnl00002254	Lansingburgh	-73.6667	42.7831
cnl00002805	Alby-sur-Chéran	6.0167	45.8167
cnl00002858	Bojanowa	16.7492	51.7067
cnl00002868	Bucelas	-9.1167	38.8992
cnl00002911	Clipstone	-1.1067	53.17
cnl00002959	Dundalk	-6.4019	54.0031
cnl00002979	Sanlúcar de Barrameda	-6.3494	36.7831
cnl00002993	Finsbury	-0.1031	51.5256
cnl00003295	Civray, Vienne	0.3	46.1494
cnl00003303	Snagof	26.1667	44.7
cnl00003343	Taunton	-3.1	51.0167
cnl00003612	Bourg-sur-Gironde	-0.55	45.0331
cnl00003622	Oshmyany	25.9167	54.4167
cnl00004214	Northumberland	-2.0	55.25
cnl00004393	Stäfa	8.7167	47.2331
cnl00004545	Zurzach	8.3	47.6
cnl00004997	Willemstad, Nordbrabant	4.4378	51.6917
cnl00005285	Sint-Maartinsdijk	4.0667	51.5494
cnl00016299	Haamstede	3.7431	51.6967
cnl00016326	Oostbroek	5.1831	52.0831
cnl00016423	Bozovics	22.0	44.9167
cnl00016447	Csóka	23.8831	46.6331
cnl00016473	Dunavecse	18.9831	46.9167
cnl00016507	Gyömrő	19.3831	47.4167
cnl00016536	Illava	18.23	49.0042
cnl00016546	Jászladány	20.1494	47.35
cnl00016567	Kézdivásárhely	26.1331	45.9831
cnl00016572	Kiskőrös	19.2831	46.6167
cnl00016613	Lupény	23.2167	45.35
cnl00016636	Mezőkovácsháza	20.9167	46.3994
cnl00016646	Modor	17.3	48.3167
cnl00016673	Nagykőrös	19.7831	47.0331
cnl00016689	Naszód	24.3994	47.2831
cnl00016691	Németlövő	16.4494	47.1667
cnl00016694	Nyárádszereda	24.8	46.5331
cnl00016703	Ökörmező	23.5	48.5167
cnl00016713	Ózd	20.3	48.2167
cnl00016716	Paks	18.8667	46.6331
cnl00016723	Párkány	18.7167	47.7831
cnl00016747	Puhó	18.3167	49.1167
cnl00016753	Rákosliget	19.25	47.4831
cnl00016763	Sajógömör	20.3167	48.45
cnl00016766	Salgótarján	19.7831	48.0831
cnl00016812	Szentes	20.2567	46.6517
cnl00016817	Széphalom	21.6267	48.4356
cnl00016822	Szikszó	20.9278	48.195
cnl00016862	Törökbecse	20.1331	45.5831
cnl00016888	Varannó	21.6844	48.8875
cnl00016890	Vásárosnamény	22.3142	48.1289
cnl00017086	Montreal	-73.5667	45.5
cnl00017128	Aunenil	2.0	49.3667
cnl00017135	Albigny	4.8331	45.8667
cnl00017454	Saint-Josse-ten-Noode	4.3667	50.8331
cnl00018544	Niemodlin	17.6	50.6331
cnl00018738	Calvi	8.7567	42.5683
cnl00018797	Beauregard-l'Évêque	3.2994	45.8167
cnl00018925	Aarberg	7.2756	47.0442
cnl00019391	Kreševo	18.05	43.8667
cnl00019484	Le Pallet	-1.3331	47.1331
cnl00019553	Valréas	4.9831	44.3831
cnl00019585	Saint Marcel d'Ardèche	4.6167	44.3167
cnl00019727	Caprera	9.4617	41.2067
cnl00019822	High Laver	0.1	51.7
cnl00020147	Lubowice	18.2331	50.1667
cnl00020253	Château de La Peyre	3.0	44.0831
cnl00020384	Nivnice	17.6464	48.9781
cnl00020427	Lignéville	5.95	48.1667
cnl00020484	Cabo Rojo	-67.15	18.0831
cnl00020553	Julémont	5.7667	50.6831
cnl00020652	Oświęcim	18.1942	51.4203
cnl00020666	Villebon	1.2067	48.3917
cnl00021009	Peschiera del Garda	10.6881	45.4381
cnl00021382	Saint-Émilion	-0.15	44.8831
cnl00021682	Santa Croce del Sannio	14.7167	41.3831
cnl00022755	Saint-Martin-d'Estréaux	3.7992	46.2
cnl00023494	Los Realejos	-16.6	28.35
cnl00023657	Passy	6.6831	45.9167
cnl00024174	Konary	16.5578	51.4117
cnl00024544	Lezuza	-2.35	38.95
cnl00025385	Abbaye de La Pierre-qui-Vire	4.0631	47.3569
cnl00026616	Cumnock	-4.2667	55.45
cnl00026663	Inverurie	-2.3794	57.28
cnl00026684	Kirkcaldy	-3.1667	56.1167
cnl00026702	Lochgilphead	-5.4317	56.0381
cnl00026707	Millport	-4.9331	55.75
cnl00026712	Musselburgh	-3.0494	55.95
cnl00026723	Partick	-4.3167	55.8667
cnl00026743	Selkirk	-2.8331	55.5494
cnl00026767	Wishaw	-3.9331	55.7667
cnl00026898	Valognes	-1.4667	49.5167
cnl00027139	Oña	-3.3992	42.7331
cnl00027204	Saint-Bertrand-de-Comminges	0.5831	43.0167
cnl00027419	Shaftesbury	-2.2	51.0
cnl00027514	Saint-Dié-des-Vosges	6.95	48.2831
cnl00027582	Saint-Marcel	4.9	46.7831
cnl00027640	Sarrancolin	0.3831	42.9667
cnl00027721	Saint-Girons	1.1497	42.9831
cnl00027754	Vico	8.8	42.1667
cnl00028004	Drongen	3.6667	51.0497
cnl00029177	Abtei St. Hildegard in Rüdesheim-Eibingen	7.9331	49.9872
cnl00029462	Bruchtorf bei Bevensen	10.5367	53.1067
cnl00029584	Böhme bei Rethem an der Aller	9.4831	52.7831
cnl00029985	Bryn Mawr	-75.3167	10.0167
cnl00030080	Ames	-93.6331	42.0331
cnl00030123	Berg-Steinhöring	12.0331	48.0831
cnl00030536	Ahlem	9.6667	52.3667
cnl00030785	Berlin-Hermsdorf	13.3167	52.6167
cnl00031044	Schwalbach, Rheingau-Taunus-Kreis	8.0667	50.1331
cnl00031421	Batz-sur-Mer	-2.4831	47.2831
cnl00031665	Bilwisheim	7.6667	48.7167
cnl00031741	Szigetvár	17.8	46.0492
cnl00032328	Bretnig-Hauswalde	14.0692	51.1553
cnl00033866	Piazza Armerina	14.3667	37.3831
cnl00033867	Sanary-sur-Mer	5.8017	43.1192
cnl00000363	Danbury	-73.4667	41.3992
cnl00001771	Krotoschin	17.4331	51.6831
cnl00002497	Groß Rauden	18.4492	50.1942
cnl00003023	Hanley	-2.1728	53.0242
cnl00003091	Lustleigh	-3.7167	50.6178
cnl00003107	Saint-Mandé	2.4167	48.8331
cnl00003323	Stokesley	-1.1903	54.4706
cnl00003327	Strabane	-7.4694	54.8294
cnl00003567	Sant'Angelo le Fratte	15.55	40.5494
cnl00004334	Saint-Wandrille	0.7667	49.5292
cnl00004396	Staplehurst	0.5528	51.1639
cnl00005027	Noordbroek	6.8667	53.2
cnl00005377	Scherpenzeel	5.4667	52.0831
cnl00005389	Villefranche-sur-Saône	4.7167	45.9831
cnl00005416	Honselersdijk	4.2331	52.0
cnl00006512	Bledzew	15.4	52.5167
cnl00016422	Borossebes	22.1167	46.3667
cnl00016488	Facsád	22.1667	45.85
cnl00016506	Gyoma	20.8167	46.9331
cnl00016562	Kecskemét	19.6831	46.8994
cnl00016589	Komjáti	20.75	48.5331
cnl00016594	Kovászna	26.1667	45.8331
cnl00016642	Miklósvár	25.5667	46.0
cnl00016680	Nagysurány	18.1831	48.0831
cnl00016767	Sárbogárd	18.6167	46.8831
cnl00016776	Segesvár	24.7831	46.2167
cnl00016803	Székelyhíd	22.1	47.35
cnl00016827	Szivác	19.3792	45.7042
cnl00016856	Tolcsva	21.4331	48.2831
cnl00016877	Újpalánka	21.3306	44.8444
cnl00016889	Várpalota	18.1392	47.1967
cnl00017186	Bir Mourad Raïs	3.0494	36.75
cnl00017325	Biecz	21.2667	49.7331
cnl00018686	Beynat	1.7239	45.1239
cnl00020117	Birchington-on-Sea	1.3044	51.3767
cnl00020181	Cartagena de Indias	-76.5328	10.4167
cnl00020698	Ely	0.05	52.3994
cnl00021245	Black Notley	0.5656	51.8517
cnl00021486	Birgi	28.05	38.25
cnl00021500	Blain	-1.7617	47.4767
cnl00022445	Bourron-Marlotte	2.7	40.3331
cnl00023127	Bleda	11.9	43.95
cnl00024359	Burma	96.0	22.0
cnl00025307	Bihar Sharif	85.5167	25.1167
cnl00027515	Nara	135.7831	34.6831
cnl00029189	Barmen	6.2992	50.95
cnl00029256	Beijing	116.3917	39.9139
cnl00029473	Mylau im Vogtland	12.2667	50.6167
cnl00031658	Sînnicolau Mare	37.7667	46.0717
cnl00031660	Roche-lez-Beaupré	6.115	47.2767
cnl00032234	Jassy	27.6	47.17
cnl00033626	Ruiseñada	4.2892	43.3653
cnl00033633	Segarra	1.3317	41.7392
cnl00033652	Albagés	4.7139	41.4506
cnl00033672	Pont d'Armentera	1.3667	41.3831
cnl00033794	Fort Dauphin	71.8328	19.7331
cnl00033832	Carracedo	-6.7314	42.5706
cnl00004318	Rouvray	4.1042	47.4253
cnl00005453	's-Gravenzande	4.1667	52.0
cnl00006090	Duai	3.0831	50.3667
cnl00006688	Aix-en-Provence	5.45	43.53
cnl00016427	Budafok	19.05	47.4331
cnl00016453	Csurog	20.0667	45.4667
cnl00016517	Hajdúnánás	21.4167	47.8331
cnl00016595	Kraszna	22.8667	47.1494
cnl00016599	Kunszentmiklós	19.1167	47.0167
cnl00016623	Marcali	17.4064	46.5831
cnl00016647	Módos	20.8531	45.4414
cnl00016895	Verpelét	20.2256	47.8331
cnl00016899	Vinga	21.2156	46.0156
cnl00016913	Zsibó	23.25	47.2667
cnl00017283	Solesmes	-0.3	47.85
cnl00017475	Ranten	14.0831	47.1667
cnl00018614	Abadiano	-2.6069	43.1525
cnl00018805	Saint-André-lès-Avignon	4.7992	43.9667
cnl00019494	Mostaganem	0.0828	35.9331
cnl00019737	Lestelle-Bétharram	-0.2167	43.1331
cnl00019885	Cérilly	2.8331	46.6167
cnl00020067	Saint-Privé	3.0	47.6831
cnl00020406	Epône	1.8167	48.95
cnl00021111	Doulevant-le-Chateau	4.9167	48.3831
cnl00022154	Fontanetto Po	8.1828	45.2
cnl00022379	Kaltern	11.24	46.4167
cnl00024111	Pointe-aux-Trembles	-73.5053	45.6417
cnl00026003	Saint Martin de Sanzay	-0.2	47.0831
cnl00026576	Alva	-3.7994	56.1494
cnl00026603	Cambuslang	-4.1667	55.8167
cnl00026606	Carnoustie	-2.7331	56.5
cnl00026613	Coupar Angus	-3.2667	56.5494
cnl00026617	Cupar	-3.0167	56.3167
cnl00026622	Denny	-3.9067	56.0178
cnl00026643	Galston	-4.3831	55.6
cnl00026653	Hamilton	-4.0494	55.7667
cnl00026672	Kilbarchan	-4.5494	55.8331
cnl00026677	Kilwinning	-4.7	55.6494
cnl00026688	Kirriemuir	-3.0044	56.6692
cnl00026698	Linlithgow	-3.6167	55.9831
cnl00026733	Prestonpans	-2.9831	55.95
cnl00026747	Stewarton	-4.5167	55.6831
cnl00026757	Tillicoultry	-3.7331	56.1492
cnl00026762	West Calder	-3.5681	55.8517
cnl00026972	Lombez	0.9167	43.4831
cnl00027408	Babylone	44.4206	32.5417
cnl00027778	Langeac	3.4831	45.1
cnl00027792	Mayorga	-5.2667	42.1667
cnl00027925	Les Cayes	-73.75	18.1994
cnl00027951	Desvres	1.8353	50.6681
cnl00028625	Jöllenbeck	8.5167	52.1
cnl00029013	Montserrat, Catalunya	1.8367	41.5931
cnl00030306	Viña del Mar	-71.5494	-33.0331
cnl00030698	Bukowiec	20.4014	54.2892
cnl00031434	Kiskunfélegyháza	19.85	46.7
cnl00031859	Vauxbuin	3.2994	49.3667
cnl00032097	Gottlieben	9.1331	47.6667
cnl00032459	Lipník nad Bečvou	17.5856	49.5281
cnl00032929	Teddington	-0.3317	51.4242
cnl00033512	Altillac	1.8667	44.9667
cnl00033543	Bridlington	-0.2	54.0831
cnl00033547	Rugeley	-1.9381	52.7592
cnl00033581	Ronco Scrivia	8.9494	44.6167
cnl00033627	Bujaraloz	-0.15	41.5
cnl00033637	Olost	2.1	41.9831
cnl00033663	Collbató	1.8331	41.5667
cnl00033666	Porto Azzurro	10.4	42.7667
cnl00033677	Moratalla	-1.8831	38.1831
cnl00033689	Sant Feliu de Llobregat	2.0492	41.3831
cnl00033691	Esparraguera	1.8667	41.5331
cnl00033698	Osor	2.5556	41.9467
cnl00033722	Hohenberg	12.2167	50.1
cnl00033756	Bourdeilles	0.5878	45.3228
cnl00033767	Port-Louis	-61.5317	16.4167
cnl00033780	Farmington	-70.1458	44.6689
cnl00033788	Cojocna	23.8331	46.7481
cnl00033790	Le Plessis-aux-Tournelles	3.2	48.5831
cnl00033799	Conteville	1.6331	49.7
cnl00033843	Sankt Paul im Lavanttal	14.8667	46.7
cnl00033857	Newport	-3.0	51.59
cnl00000243	Chiswick	-0.2667	51.5
cnl00000580	Gura Raûlul	23.9667	45.7331
cnl00000732	Kirchehrenbach	11.15	49.7331
cnl00001230	Ruthin	-3.3167	53.1167
cnl00001358	Sézanne	3.7167	48.7167
cnl00001409	Stockton-on-Tees	-1.3167	54.5667
cnl00001518	Ventabren	5.2994	43.5331
cnl00001554	Wörnitz	10.25	49.25
cnl00001619	Drossen	14.8667	52.45
cnl00001905	Clodock	-2.9817	51.9417
cnl00002231	Roggwil	9.3953	47.4992
cnl00003022	Ham, Somme	3.0731	49.7467
cnl00003152	Rougemont	7.2106	46.4892
cnl00003163	Nájera	-2.7331	42.4167
cnl00003232	Raglan	-2.85	51.7642
cnl00003256	Roscrea	-7.7994	52.95
cnl00003273	Senez	6.4	43.9167
cnl00003312	Épône	1.8167	48.95
cnl00003317	Steenwijk	6.1331	52.7831
cnl00003423	Wizsoly	21.2164	48.3842
cnl00003447	Youghal	-7.8494	51.95
cnl00003481	Cadillac, Gironde	-0.3175	44.5539
cnl00003542	Medina de Rioseco	-5.0492	41.8831
cnl00003737	Barr	-4.7114	55.2017
cnl00003873	East Ardsley	-1.5389	53.725
cnl00031714	Roxbury	-71.0997	42.3331
cnl00032210	Ronsdorf	7.2	51.2256
cnl00004321	Rügen	13.3667	54.4167
cnl00004325	Rzeszów	22.0	50.0494
cnl00004574	Senones	6.9831	48.3994
cnl00005002	Loenen	5.0167	52.2167
cnl00006126	Gottorp	9.5403	54.5117
cnl00013626	San Cugat del Vallés	2.0894	41.4694
cnl00016446	Csitár	19.4331	48.0494
cnl00016452	Csurgónagymarton	17.0667	46.2831
cnl00016502	Gödöllő	19.3667	47.6
cnl00016527	Holics	17.1331	48.7994
cnl00016577	Kiskunmajsa	19.7367	46.4917
cnl00016598	Kunszentmárton	20.2831	46.8331
cnl00016616	Magyarkimle	17.3667	47.8167
cnl00016752	Rákoscsaba	19.2831	47.4831
cnl00016802	Szeghalom	21.1494	47.0167
cnl00016826	Szirák	19.5317	47.8314
cnl00016847	Tiszaföldvár	20.25	46.9667
cnl00016873	Turdossin	19.55	49.3331
cnl00017631	Montreuil	-0.8331	46.4167
cnl00019495	Caprese Michelangelo	11.9856	43.6406
cnl00020033	Sudbury	-1.7617	52.8856
cnl00022179	Abbaretz	-1.5331	47.5497
cnl00026577	Alyth	-3.2317	56.6231
cnl00026591	Beith	-4.6331	55.75
cnl00026642	Galashiels	-2.8167	55.6167
cnl00026666	Jedburgh	-2.5494	55.4831
cnl00026680	Kinghorn	-3.1667	56.0667
cnl00026699	Loch Awe	-5.2328	56.2853
cnl00026717	Newton-Stewart	-4.4831	54.95
cnl00026726	Peterhead	-1.7831	57.5089
cnl00026752	Strathaven	-4.065	55.6767
cnl00027121	Entrammes	-0.7156	48.0
cnl00027150	Liessies	4.0828	50.1181
cnl00027308	Saint-Georges-sur-Loire	-0.7667	47.4167
cnl00027368	São Luís do Maranhão	-44.2667	-2.5167
cnl00027469	Soligny-la-Trappe	0.5331	48.6167
cnl00027521	Sallanches	6.6331	45.9331
cnl00027774	Méobecq	1.4167	46.7331
cnl00027875	La Séauve-sur-Semène	4.25	45.2994
cnl00028514	Mosbach	8.2406	50.0472
cnl00030172	Achterdiek b.Bremen	8.8697	53.0969
cnl00030636	Bonstetten bei Zürich	8.4692	47.3156
cnl00031115	Ambleside	-2.9622	54.4247
cnl00031611	La Plata	-75.9	2.3831
cnl00031661	Berchem	4.4331	51.2
cnl00031724	Grindelwald	8.0331	46.6256
cnl00032325	Obra	16.05	52.0831
cnl00032954	Rothley	-1.1331	52.7
cnl00033537	Clapham	-0.1331	51.4667
cnl00033546	Hythe	1.0831	51.0667
cnl00033685	Viñols i els Arcs	1.04	41.1156
cnl00033694	Monistrol de Montserrat	1.85	41.6167
cnl00033837	Sahagún	-5.0331	42.3667
cnl00023852	Fossadalbero	11.7128	44.9156
cnl00024004	Alghero	8.3217	40.5578
cnl00024848	Mainz‏	8.2708	50.0
cnl00026043	Linden	-74.25	40.6331
cnl00026227	Kabul	69.1667	34.5331
cnl00026542	Collonges-Bellerive	6.2	46.25
cnl00029281	Elkhart	-85.9667	41.6831
cnl00029291	Downsview	-79.4656	43.7428
cnl00029294	Porto Alegre	-51.2292	-30.0331
cnl00029499	Icking	11.4331	47.95
cnl00029526	Inzighofen	9.1753	48.0717
cnl00029813	McLean	-77.1831	38.9331
cnl00029862	Mayagüez	-67.15	18.2167
cnl00029937	Mokdong	126.8831	37.5244
cnl00030006	Dacca	90.4	23.7331
cnl00030043	Kharagpur	87.3167	22.3331
cnl00030053	Milton Keynes	-0.7331	52.0167
cnl00030189	Krombach	7.9581	50.9944
cnl00030356	Graz-Stifting	15.4331	47.0667
cnl00030489	Hannover-Waldheim	9.7831	52.3331
cnl00030503	Lehnstedt bei Mellingen	11.4372	50.9397
cnl00030562	Kahl am Main	9.0067	50.0667
cnl00030789	Hausen bei Gießen	8.7331	50.5331
cnl00030862	Liepgarten	14.0167	53.7167
cnl00030884	Köhlen über Bremerhaven	8.8747	53.5406
cnl00030990	Kathmandu	85.3167	27.7167
cnl00031269	Jetzendorf	11.4194	48.4339
cnl00031274	Karatschi	67.0167	24.8667
cnl00031509	Jablonken	20.1	53.7
cnl00031540	Kymi auf Euboea	24.1	38.6331
cnl00032020	Eddelsen	9.9853	53.3856
cnl00032138	Krummau	14.3167	48.8167
cnl00032200	Lankowitz	15.0631	47.0639
cnl00032224	Moutier-Gran-Val	7.3717	47.2806
cnl00032241	Großmehlra bei Sondershausen	10.6125	51.2653
cnl00032421	Klein Flottbek bei Altona	9.8642	53.5517
cnl00032504	Hohenborn	9.2789	51.4206
cnl00032629	Liberty	-84.9289	39.6356
cnl00032639	Lindorf	9.4128	48.6464
cnl00032651	nan	-79.8453	32.8231
cnl00032668	Langhorne	-74.9189	40.1775
cnl00032814	Midlum bei Dorum	8.6156	53.7292
cnl00033852	Saint-Aubin-de-Médoc	-0.7167	44.9167
cnl00000233	Buitenpost	6.15	53.25
cnl00000367	Dehiwala	79.8828	6.8667
cnl00000557	Glücksburg	9.55	54.8331
cnl00000857	Lindfield	-0.0689	51.0131
cnl00002093	Serravalle	12.2892	45.9992
cnl00002535	Korfu	19.75	39.6667
cnl00002908	Citeaux	5.0931	47.1281
cnl00002965	Missolonghi	21.4331	38.3831
cnl00002983	Saint-Nicolas-de-Port	6.2992	48.6331
cnl00003032	Henley-on-Thames	-0.9	51.5331
cnl00003198	Passy	2.2831	48.85
cnl00003352	Thouars	-0.2167	46.9831
cnl00003356	Toggenburg	9.1667	47.2994
cnl00003385	Utrera	-5.7994	37.17
cnl00003389	Vaugirard	2.2994	48.8331
cnl00003932	Gela	14.25	37.0667
cnl00004050	Kirchdorf, Iller	10.1331	48.0831
cnl00004140	Mercersburg	-77.9019	39.8292
cnl00004155	Mirzapur-cum-Vindhyachal	82.5689	25.1453
cnl00006294	Schuls	10.3	46.7992
cnl00006302	Speldorf	6.8331	51.4167
cnl00017554	Abbiategrasso	8.9167	45.3997
cnl00018639	Saint-Maurice	2.4331	48.8167
cnl00005322	Menzingeweer	6.4667	53.35
cnl00016433	Cinkota	19.2167	47.5167
cnl00016480	Enying	18.2331	46.9167
cnl00016677	Nagymihály	21.9167	48.75
cnl00016698	Nyírtét	21.9331	48.0167
cnl00016707	Oravicabánya	21.6831	45.0331
cnl00016733	Pesterzsébet	19.1	47.4331
cnl00016852	Tiszaújlak	22.8317	48.1142
cnl00016876	Újfehértó	21.6831	47.7831
cnl00019502	Sommersdorf	12.9	53.7997
cnl00020653	Lipniki	23.75	51.0831
cnl00021519	San Giovanni in Persiceto	11.1831	44.6331
cnl00021819	Vaux	6.0806	49.0942
cnl00023363	Taggia	7.8519	43.8458
cnl00027404	Salvador	-38.5167	-12.9831
cnl00027414	Saint-Pons-de-Thomières	2.7667	43.4831
cnl00027461	Saint-Junien	0.9	45.8831
cnl00027493	Saugues	3.5497	44.9667
cnl00027844	Port Talbot	-3.7997	51.5831
cnl00027924	El Puig	-0.3031	39.5892
cnl00029585	Southgate	-0.1264	51.6314
cnl00029713	Stockton	-121.3006	37.9756
cnl00029763	Bushire	50.8331	28.9667
cnl00030342	Kronshagen bei Kiel	10.0831	54.3331
cnl00030352	Izmir	27.1492	38.4167
cnl00030923	Sigolsheim	7.2997	48.1331
cnl00031169	Duino	13.6667	45.75
cnl00031171	Genin	7.1667	53.8331
cnl00031183	Drahan	16.8997	49.4331
cnl00031596	Evansville	-87.5497	37.9831
cnl00031801	Ichenheim	7.8039	48.4653
cnl00032231	Sydney	151.2067	-33.8678
cnl00032728	Börzow	11.1194	53.8575
cnl00032765	Schorndorf	9.5331	48.7997
cnl00027711	Le Tholy	6.75	48.0831
cnl00029280	Kristberg	9.9822	47.1081
cnl00029346	Langen bei Bremerhaven	8.5942	53.6042
cnl00029432	Kirchhatten bei Oldenburg i. O.	8.3497	53.0208
cnl00029507	Erdmannshausen	9.3	48.95
cnl00029723	Irvine	-117.7997	33.6831
cnl00029857	Girrawheen	115.8331	-31.8331
cnl00029917	Lamoni	-93.9331	40.6167
cnl00029967	Long Beach	-118.1903	33.7681
cnl00030057	Hiroshima	132.4497	34.3831
cnl00030137	Kremlin	14.8831	53.0831
cnl00030184	Groß Gievits	12.7831	53.5831
cnl00030463	Lünzen über Soltau	9.6906	53.1114
cnl00030467	Hettensen	9.7892	51.6156
cnl00030556	Köln-Buchheim	7.0131	50.9558
cnl00030612	Ekaterinoslaw	35.0497	48.4667
cnl00030873	Echem	10.5367	53.3369
cnl00030995	Hoshiapur	75.9167	31.5331
cnl00031141	Gahmen	7.0514	51.5917
cnl00032220	Dannenberg	11.0831	53.0
cnl00032244	Groß-Flottbeck	9.8769	53.5653
cnl00032383	Mörs	6.6264	51.4517
cnl00032434	Lehrte bei Hannover	9.9769	52.3725
cnl00032669	Messelhausen	9.7883	49.5758
cnl00000380	Didsbury	-2.2331	53.4167
cnl00000632	Hundsfeld	17.0331	51.1167
cnl00000677	Hohensalzburg	13.0467	47.7831
cnl00000889	Màlaga	-4.4167	36.7167
cnl00000903	Mallorca	2.9667	39.6167
cnl00001587	Wolston	-1.3897	52.3694
cnl00001651	Liefkenshoek	4.95	51.4331
cnl00001951	Bretford	-0.31	51.4856
cnl00002065	Guernsey	-2.6	49.45
cnl00002218	Reinach	7.5892	47.4931
cnl00002920	Congleton	-2.2167	53.1667
cnl00003013	Gosport, Hampshire	-1.1167	50.7992
cnl00003042	Howden	-0.8667	53.75
cnl00003112	Marienborn	9.0167	50.25
cnl00003233	Rainham	0.1942	51.5169
cnl00003326	Stourport on Severn	-2.2831	52.3331
cnl00003443	Wotton-under-Edge	-2.3489	51.6378
cnl00003522	Gijón	-5.6667	43.5494
cnl00003536	Luc-en-Diois	5.45	44.6667
cnl00003599	Marennes	-1.1053	45.8219
cnl00004183	Carei	22.4694	47.6894
cnl00004265	Pfaffenweiler	7.75	47.9331
cnl00004558	Holar	-19.1131	65.7319
cnl00005346	Holwerd	5.9	53.3667
cnl00005357	Koevorden	6.75	52.6667
cnl00005403	Loo	5.9456	52.2339
cnl00005423	Fresenburg	7.2992	52.8831
cnl00005452	Delden	6.7117	52.2628
cnl00016388	Baja	18.9517	46.1775
cnl00016390	Balatonboglár	17.6667	46.7667
cnl00016462	Dévaványa	20.9494	47.0167
cnl00016467	Dobsina	20.3667	48.8167
cnl00016489	Fehérgyarmat	22.5167	47.9831
cnl00016491	Felsőgalla	18.3831	47.5831
cnl00016513	Hadad	23.0331	47.3994
cnl00016516	Hajdúhadház	21.6667	47.6831
cnl00016566	Kevevára	20.9667	44.7331
cnl00016576	Kiskunlacháza	19.0167	47.2
cnl00016607	Lőcse	20.5831	49.0167
cnl00016617	Magyarlápos	23.85	47.45
cnl00016667	Nagykálló	21.85	47.8667
cnl00016688	Námesztó	19.4667	49.3992
cnl00016690	Nedelicz	16.4167	46.3667
cnl00016736	Pestújhely	19.1167	47.5331
cnl00016780	Siklós	18.2981	45.8553
cnl00016799	Szatmárnémeti	22.8731	47.7842
cnl00016842	Temerin	19.8831	45.4167
cnl00016863	Törökkanizsa	20.1	46.0494
cnl00016866	Tótkomlós	20.7167	46.4167
cnl00016894	Verebély	18.3064	48.24
cnl00016903	Zalaszentgrót	17.1	46.9167
cnl00016912	Zseliz	18.6567	48.0481
cnl00018697	Puimoisson	6.1331	43.8667
cnl00019395	Gannat	3.2	46.1
cnl00019603	Haworth	-1.96	53.8292
cnl00020863	Nagyajta	25.55	45.9667
cnl00020956	Ribera	13.2667	37.5
cnl00022448	Foulshiels	-2.9167	55.5494
cnl00022492	Ciudad Rodrigo	-6.5331	40.6
cnl00022578	Tarifa	-5.5994	36.0167
cnl00026543	Nairn	-3.8831	57.5831
cnl00026588	Bannockburn	-3.9167	56.0831
cnl00026590	Bathgate	-3.6494	55.8994
cnl00026612	Colinsburgh	-2.85	56.2167
cnl00026623	Dingwall	-4.4331	57.6
cnl00026626	Dumbarton	-4.5492	55.95
cnl00026633	Dunoon	-4.9167	55.95
cnl00026652	Haddington	-2.7831	55.95
cnl00026657	Inchgarvie	-3.3864	56.0006
cnl00026689	Kirtlebridge	-3.2	55.0492
cnl00026691	Langholm	-3.0	55.1494
cnl00026713	Nairn	-3.8831	57.5831
cnl00026716	Newmilns	-4.3289	55.6078
cnl00026746	Stevenston	-4.7578	55.645
cnl00026763	Whitburn	-3.6831	55.8667
cnl00027411	Antioche	36.1492	36.2
cnl00027886	Arles-sur-Tech	2.6344	42.4544
cnl00028104	Lalinde	0.7331	44.8331
cnl00030443	Sachsenhausen	9.0078	51.2444
cnl00030947	Curitiba	-49.2667	-25.4331
cnl00031439	Otjiwarongo	16.6528	-20.4642
cnl00032369	nan	8.5603	47.3681
cnl00032938	Woolley	-1.5164	53.6142
cnl00032959	Grabštejn	14.8667	50.8456
cnl00033285	Castel d'Azzano	10.9494	45.35
cnl00033453	Elbingen	7.91	50.53
cnl00033506	Pinterville	1.1831	49.2
cnl00033599	Real Monasterio de San Juan de la Peña	-0.6664	42.5078
cnl00033643	Calaf	1.5167	41.7331
cnl00033667	Ulldecona	0.45	40.6
cnl00033688	Castellfort	-0.1914	40.5017
cnl00033690	Vallromanes	2.3017	41.5339
cnl00033773	Wabern	7.4481	46.9281
cnl00033777	Briesen	13.73	52.0394
cnl00033803	Hohenahr	8.5167	50.6667
cnl00033807	Foulquemont	6.5992	49.0331
cnl00026673	Killin	-4.3167	56.4667
cnl00026676	Kilsyth	-4.0492	55.9831
cnl00026703	Lochmaben	-3.45	55.1331
cnl00026706	Maybole	-4.6831	55.35
cnl00026732	Portsoy	-2.7	57.6831
cnl00027069	Jumièges	0.8167	49.4331
cnl00027425	Méziré	6.9167	47.5331
cnl00027518	Burgusio	10.5281	46.7094
cnl00028035	Munderkingen	9.6439	48.2353
cnl00029463	Eschweiler	6.2667	50.8167
cnl00030498	Sesto	12.3831	46.6667
cnl00032638	Dornach	7.6181	47.4792
cnl00033553	Haverfordwest	-4.9667	51.7992
cnl00033636	Vila-rodona	1.3667	41.3167
cnl00033699	Alpens	2.1006	42.1194
cnl00033737	Hennstedt	9.1667	54.2831
cnl00033776	Barum	10.4189	52.1217
cnl00033827	Mülheim	8.2903	51.4906
cnl00033853	Chavannes-près-Renens	6.5767	46.5417
cnl00033856	Launaguet	1.4492	43.6831
cnl00001408	Stein, Donau	15.5817	48.4017
cnl00003294	Zevenbergen	4.5994	51.6494
cnl00005312	Blokzijl	5.9667	52.7331
cnl00032741	Kiel-Gaarden	10.14	54.3167
cnl00022264	Doeschnitz	11.2331	50.6167
cnl00022970	Irlande du Nord	-6.9331	54.5831
cnl00029277	Morris	-95.9167	45.5831
cnl00029413	Greifswald-Eldena	11.4217	53.2306
cnl00030326	Lachen am See	8.8567	47.1908
cnl00030347	Kaltenbuch	11.0647	49.0642
cnl00030373	Paternò	14.9	37.5667
cnl00030626	Großerkmannsdorf	13.9242	51.0869
cnl00030662	Heinsen	9.4356	51.8831
cnl00030673	Leubnitz-Werdau	12.3528	50.7217
cnl00030817	Fischerhude	9.0581	53.1167
cnl00031218	Frankfurt am Main- Dornbusch	8.6706	50.1392
cnl00031321	Dölau b.Halle	11.8817	51.5117
cnl00031493	Göschen b. Brandenburg	14.2906	52.0214
cnl00031568	Eggloffstein	11.25	49.7
cnl00032128	Gut Bobelwitz	15.5667	52.4331
cnl00032186	Jörnstorf	11.6956	54.0542
cnl00032505	Melleville	1.6331	49.7667
cnl00032592	Kedzierzyn Kozle	18.2167	50.35
cnl00032635	Lunz a. See	15.0267	47.8606
cnl00021261	Kosovo polje	21.1167	42.5831
cnl00032219	Dirlewang	10.5	48.0
cnl00004543	Zirovnica	14.1331	46.3994
cnl00006348	Wilhermsdorf	13.3167	52.4831
cnl00015996	Auhausen	10.6331	48.0167
cnl00021212	Biggin Hall	-0.5506	52.49
cnl00022003	Billingborough	-0.34	52.8931
cnl00022499	Bibbiano	10.4667	44.6667
cnl00022502	Bessay	-1.1531	46.5381
cnl00024376	Bernalillo	-106.5517	35.3092
cnl00025669	Bierton	-0.7878	51.8294
cnl00027147	Roncesvalles	-1.3167	43.0167
cnl00027723	Cherbourg-Octeville	-1.6492	49.6492
cnl00030974	Berlin-Steglitz	13.3331	52.4667
cnl00033714	Traben	7.1167	49.95
cnl00033793	Postřekov	12.8	12.8
cnl00006260	Petit-Quevilly	1.05	49.4331
cnl00027267	Saint-Nicolas-lès-Cîteaux	5.0553	47.1156
cnl00027476	Québec	-71.2192	46.81
cnl00028037	Prâlon	4.7831	47.3167
cnl00028046	Pothières	4.5206	47.9231
cnl00030350	Reinfeld	10.4831	53.8331
cnl00031253	Неман	22.0331	55.0331
cnl00031794	Reichenbach im Vogtland	12.3	50.6167
cnl00033496	Rauden	15.6831	51.7831
cnl00006269	Querfurt	11.5992	51.3831
cnl00006055	Brugk	16.7692	48.02
cnl00016005	Beuerberg	11.4167	47.8331
cnl00016008	Bierlingen	8.8167	48.4331
cnl00020031	Cigoli	10.8142	43.6817
cnl00023421	Birkenhead	-3.0139	53.3931
cnl00025968	Bernburg an der Saale	11.75	51.7994
cnl00026693	Leith	-3.1692	55.9692
cnl00028937	Burgo de Osma	-3.04	41.35
cnl00033674	Sant Pere de Torelló	2.0	42.0
cnl00026919	Pont-Saint-Esprit	4.65	44.25
cnl00030197	Pößneck	11.5997	50.7
cnl00032746	Ribnitz	12.4667	54.25
cnl00033311	Puerto de Santa María, Andalusia	6.2331	36.6
cnl00033359	Pirou	-1.5667	49.1667
cnl00033865	Lindores	-3.1903	56.3386
cnl00017303	Salt Lake City, Utah	-111.9	40.75
cnl00019686	Arbury Hall	-1.5078	52.5006
cnl00019850	Bad-Schwalbach	8.0667	50.1331
cnl00026892	Saint-Sauveur-le-Vicomte	-1.5328	49.3869
cnl00026904	Saint-Pierre-sur-Dives	-0.0331	49.0167
cnl00027032	Saint-Pierre-de-Chartreuse	5.8167	45.35
cnl00027180	Abbadia San Salvatore	11.6831	42.8831
cnl00027222	San Sebastián	-1.9831	43.3167
cnl00027281	Abbaville	1.8331	50.1
cnl00027290	Тула	37.6167	54.2
cnl00027416	Soignies	4.0667	50.5831
cnl00027463	Seclin	3.0331	50.5497
cnl00027607	Thetford, Norfolk	0.75	52.4167
cnl00027933	Saint-Jodard	4.1331	45.8831
cnl00029751	Bous a. d. Saar	6.7997	49.2831
cnl00029818	Schanghai	121.4667	31.2331
cnl00029844	San Salvador	-89.1831	13.6831
cnl00030024	St. Andrews	-67.0494	45.0667
cnl00030034	Bryn Mawr	-75.3167	40.0167
cnl00030430	Zefat	35.4981	32.9656
cnl00031217	Nürnberg-Buchenbühl	11.1081	49.5042
cnl00031747	Amani in Deutsch-Ostafrika	34.0	-7.0
cnl00032198	Staniszów	15.7258	50.8494
cnl00032427	's-Gravenhagen	4.3167	52.0831
cnl00032456	Brauel	9.2756	53.3178
cnl00032807	Vize	27.7667	41.5667
cnl00033868	Kaufungen	12.6828	50.89
cnl00027066	Pontlevoy	1.25	47.3831
cnl00027190	Pont-de-l'Arche	1.1497	49.2997
cnl00029301	Portland, Or.	-122.6831	45.5167
cnl00006458	Bełżyce	22.2831	51.1831
cnl00006518	Beszowa	21.1106	50.4219
cnl00010654	Muri	8.33	47.27
cnl00013296	Rochester	0.52	51.38
cnl00017688	Bhit	68.45	25.6
cnl00018172	Bessude	8.7331	40.5494
cnl00018523	Affligem	4.0994	50.8994
cnl00018784	Biourge	5.325	49.8406
cnl00020164	Bewdley	-2.3156	52.375
cnl00020410	Billerica, MA	-71.2692	42.5581
cnl00022663	Bjerregård (Holmsland Klit)	8.1694	55.8664
cnl00022942	Berzé-le-Châtel	4.6894	46.3853
cnl00026410	Bkirki	35.6331	33.9681
cnl00026514	Berrechid	-7.9831	33.4667
cnl00026628	Dunbar	-2.5167	56.0
cnl00033640	La Garriga	2.2831	41.6831
cnl00033718	Schloss Wolfsburg	10.7992	52.4392
cnl00033821	Saint-Hermine	-1.05	46.5494
cnl00033851	Boule-d'Amont	2.45	42.5831
cnl00028667	Quakenbrück	7.95	52.6831
cnl00006286	Schiffbek	10.1006	53.5403
cnl00017002	Abondance	6.7228	46.2794
cnl00018527	Alost	4.0667	50.9331
cnl00020354	Porvoo	25.6667	60.3997
cnl00027302	Saint-Nazaire	-2.2167	47.2831
cnl00027412	Saint-Guilhem-le-Désert	3.5494	43.7331
cnl00027736	Saint-Papoul	2.0331	43.3331
cnl00030087	Alliance	-81.0997	40.9167
cnl00030518	Tata	18.3281	47.655
cnl00031191	Saarburg	6.5497	49.6167
cnl00033530	Limay	1.7367	48.9942
cnl00001181	Rotenburg, Fulda	9.7331	51.0
cnl00000168	Plassenburg	11.4631	50.1081
cnl00000278	Chambord	1.5167	47.6164
cnl00000296	Saint Ives	-5.4831	50.2167
cnl00000329	Coligni	5.3494	46.3831
cnl00000479	Helston	-5.2667	50.1
cnl00000549	Giebing	11.5067	48.3681
cnl00000620	Harborne	-1.9694	52.45
cnl00000641	Jalapa	-96.9331	19.5331
cnl00000668	Hingham	-70.8828	42.2331
cnl00000941	Menorca	4.0831	39.9667
cnl00001490	Umeå	20.2606	63.8331
cnl00001591	Yardley	-1.8167	52.4667
cnl00001594	Zizers	9.5667	46.9331
cnl00001727	Stolzenberg	15.6994	53.8831
cnl00001746	Jersey	-2.1331	49.2167
cnl00001807	Nellore	79.9831	14.4494
cnl00001890	Castel Sant' Angelo	12.4664	41.9031
cnl00002133	Tula	37.6167	54.2
cnl00002412	Celerina	9.8594	46.5117
cnl00002863	Brieg, Waadt	7.9867	46.3156
cnl00002884	Carrick-on-Suir	-7.4167	52.35
cnl00002990	Fersfield	1.0339	52.4031
cnl00002995	Fitero	-1.85	42.0492
cnl00003024	Harg	18.4031	60.1842
cnl00003040	Horažd'ovice	13.6994	49.3167
cnl00003065	Lacock Abbey	-2.1167	51.4142
cnl00003093	Lymington	-1.55	50.75
cnl00003110	Margate	1.3831	51.3831
cnl00003130	Milborne-Port	-2.4606	50.9664
cnl00003300	Skálholt	-20.5167	64.1328
cnl00003301	Slovita	24.5831	49.75
cnl00003325	Stourbridge	-2.1494	52.45
cnl00003696	Ain	5.3331	46.0831
cnl00005310	Winschoten	7.0331	53.1494
cnl00005320	Sappemeer	6.7994	53.1667
cnl00010000	Helsingør	12.5	56.0494
cnl00016228	Steingaden	10.8667	47.7
cnl00016274	Baexem	5.8831	51.2331
cnl00016278	Blitterswijk	6.1081	51.5306
cnl00016320	Muiden	5.0667	52.3331
cnl00016339	Sticht	7.5331	51.1667
cnl00016344	Uitgeest	4.7167	52.5331
cnl00016438	Csantavér	19.7667	45.9167
cnl00016474	Ecseg	19.6	47.8994
cnl00016482	Ercsi	18.9167	47.2331
cnl00016500	Gálszécs	21.6494	48.7
cnl00016504	Gyergyószárhegy	25.5167	46.7331
cnl00016515	Hajdúdorog	21.4981	47.8153
cnl00016524	Hódmezővásárhely	20.3	46.4167
cnl00016538	Ipolyság	18.9494	48.0667
cnl00016545	Jászfényszaru	19.7167	47.5667
cnl00016571	Kisjenő	21.5	46.5167
cnl00016583	Kisújszállás	20.7667	47.2167
cnl00016605	Lippa	21.6992	46.0831
cnl00016618	Magyarpécska	21.0667	46.1667
cnl00016625	Maroshévíz	25.3331	46.9167
cnl00000338	Hohenlandsberg	10.2978	49.5944
cnl00000409	Eleftheroupoli	24.25	40.9167
cnl00000929	Mazzarino	14.2106	37.3028
cnl00001143	Petersau	8.4144	49.5717
cnl00001677	Rutland	-0.65	52.6667
cnl00001976	Denderleeuw	4.0831	50.8831
cnl00002027	Fluelen	8.6167	46.8994
cnl00002266	Oletta	9.3494	42.6331
cnl00002847	Bemfica	-9.1994	38.75
cnl00003120	Medemblik	5.0331	52.6831
cnl00003149	Michelsberg	10.8767	49.8931
cnl00003231	Quesada	-0.7289	38.0653
cnl00003271	Saint Hélier	-2.1081	49.1903
cnl00003297	North Shields	-1.4492	55.0167
cnl00003318	Steenkerke	6.1331	51.0667
cnl00003339	Tamins	9.4	46.8331
cnl00003492	Kristiansand	8.0	58.1494
cnl00003509	Fontebuona	11.2906	43.8742
cnl00003511	Borgolavezzaro	8.6994	45.3167
cnl00003592	Villanueva de la Reina	-3.9167	38.0
cnl00003887	Emmishofen	9.1631	47.6492
cnl00003951	Gornji Milanovac	20.46	44.0242
cnl00004153	Milwood, NY	-73.7967	41.1917
cnl00004346	Sant'Arpino	14.25	40.95
cnl00004347	Sarmenstorf	8.2506	47.3103
cnl00004833	Petrovaradin	19.8831	45.25
cnl00005300	Graft	4.8492	52.5492
cnl00005308	Durgerdam	4.9831	52.3831
cnl00005315	Hoogkerk	6.5	53.2167
cnl00005365	Zoeterwoude	4.5	52.1167
cnl00006465	Koprzywnica	21.5831	50.5906
cnl00016239	Tramin	11.2331	46.3331
cnl00016421	Borosjenő	21.8331	46.4167
cnl00016450	Csorvás	20.8331	46.6331
cnl00016471	Dunaföldvár	18.9167	46.7994
cnl00016497	Füzesgyarmat	21.1994	47.1
cnl00016519	Halmi	23.0306	47.9806
cnl00016530	Homoródalmás	25.4494	46.2167
cnl00016569	Királyhida	16.7667	48.0167
cnl00016631	Mátyásföld	19.1956	47.5092
cnl00016634	Mezőcsát	20.8994	47.8167
cnl00016649	Mohács	18.6806	45.9956
cnl00016651	Mokrin	20.3994	45.9331
cnl00016658	Nadány	18.2831	48.5831
cnl00016670	Nagykároly	22.4667	47.6831
cnl00016679	Nagysomkút	23.4831	47.5
cnl00016696	Nyíregyháza	21.7167	47.95
cnl00016697	Nyírmada	22.1831	48.0667
cnl00016700	Nyustya	19.9494	48.5667
cnl00016705	Ompolygyepű	23.3331	46.1
cnl00016724	Pásztó	19.6994	47.9167
cnl00016735	Pestszentlőrinc	17.9831	46.0494
cnl00016745	Priszaka	22.1494	45.4831
cnl00016748	Püspökladány	21.1167	47.3167
cnl00016761	Rozsnyó	20.5331	48.6494
cnl00016768	Sarkad	21.3667	46.7331
cnl00016774	Sátoraljaújhely	21.6567	48.3931
cnl00016782	Siófok	18.05	46.8994
cnl00016787	Soroksár	19.1	47.3994
cnl00016814	Szentlőrinc	17.9856	46.0417
cnl00016824	Szilágysomlyó	22.8	47.2292
cnl00016825	Szinérváralja	23.2853	47.7478
cnl00016838	Tasnád	22.5831	47.4764
cnl00016841	Tejfalu	17.3167	48.0167
cnl00016849	Tiszakécske	20.1	46.9331
cnl00016864	Törökszentmiklós	20.4089	47.1781
cnl00016865	Torontálvásárhely	20.6	45.0694
cnl00016874	Túrkeve	20.7331	47.1
cnl00016878	Újpest	19.0831	47.5667
cnl00017003	Moere	2.95	51.1167
cnl00017217	Le Vigan	3.6	43.9831
cnl00000870	Llandovery	-3.7994	52.0
cnl00000974	Varallo	8.25	45.8167
cnl00001491	Uclés	-2.8667	39.9831
cnl00001694	Solms	8.4167	50.5331
cnl00002657	Saint-Etienne	4.3831	45.4331
cnl00002680	Steinau	16.4167	51.4167
cnl00002856	Bocking	0.55	51.8667
cnl00002889	Montecassino	13.8	41.4903
cnl00003008	Gingins	6.1831	46.4167
cnl00003020	Hafod	-3.8231	52.3431
cnl00003059	Kirkby in Ashfield	-1.25	53.1
cnl00003061	Kopitz	13.6167	50.5494
cnl00003109	Marchena	-5.4167	37.3331
cnl00003174	Nesvizh	26.6667	53.2167
cnl00003611	Sainte-Foy-la-Grande	0.2167	44.8331
cnl00003614	Bailleul	2.7331	50.7331
cnl00003908	Fontwell	-0.6478	50.8544
cnl00004556	Lindisfarne	-1.7956	55.6781
cnl00005120	Scarborough, New Yorkshire	-0.4	54.2831
cnl00005192	Cap-Haïtien	-72.2	19.7667
cnl00006520	Wieluń	18.5667	51.2167
cnl00016021	Buxheim	10.1331	48.0
cnl00016330	Rijnsburg	4.4331	52.1831
cnl00016425	Breznóbánya	19.6331	48.7994
cnl00016429	Büdszentmihály	21.3667	47.95
cnl00016451	Csurgó	17.0831	46.25
cnl00016460	Detta	21.2167	45.3831
cnl00016464	Dicsőszentmárton	24.2867	46.3292
cnl00016475	Edelény	20.7331	48.2831
cnl00016479	Encs	21.1167	48.3167
cnl00016493	Felsővisó	24.4167	47.7167
cnl00016531	Honctő	22.3331	46.2667
cnl00016541	Jánosháza	17.1331	47.1167
cnl00016555	Kaposvár	17.7831	46.35
cnl00016568	Királyhelmec	21.9667	48.4167
cnl00016582	Kistelek	19.9667	46.4667
cnl00016597	Kunhegyes	20.6167	47.3667
cnl00016621	Mándok	22.1994	48.3167
cnl00016624	Margitta	22.3331	47.3331
cnl00016628	Marosújvár	23.85	46.3831
cnl00016630	Mátészalka	22.3167	47.9431
cnl00020428	Blainville-sur-l'Eau	6.4069	48.5556
cnl00020730	Bessé-sur-Braye	0.7492	47.8339
cnl00021298	Čakovo	20.225	48.3403
cnl00024133	Bissone	8.9667	45.95
cnl00026150	Bicêtre	2.3581	48.81
cnl00027143	Solignac	1.2831	45.75
cnl00027191	Saint-Sever	-0.5667	43.75
cnl00027343	Saint-Maurice-sur-Aveyron	2.9331	47.85
cnl00027406	Saint-Thierry	3.9667	49.2994
cnl00027663	Saint-Gaudens	0.7167	43.1
cnl00028077	Teruel	-1.1	40.35
cnl00028977	Santorso	11.38	45.7292
cnl00029120	Schlichtingsheim	16.25	51.7167
cnl00029230	Strassburg	14.33	46.89
cnl00029604	Schleiden	6.4831	50.5331
cnl00030315	Weinsberg	9.2831	49.1497
cnl00031052	Bremke bei Göttingen	10.0428	51.4467
cnl00031127	Sierre	7.5339	46.2917
cnl00031153	Bagsværd	12.4578	55.7642
cnl00031591	Lockstedt bei Hamburg	9.8628	54.0
cnl00032662	Aalten	6.5831	51.9167
cnl00033649	Granadilla de Albona	-16.5831	28.1167
cnl00033797	La Gastine	0.3	48.4331
cnl00017522	Bacilly	-1.4331	48.7
cnl00017867	Klingenthal	7.4167	48.4667
cnl00017998	Montecatini Terme	10.7667	43.8831
cnl00018236	Frome	-2.3167	51.2167
cnl00018616	Allendorf	8.8167	50.6831
cnl00019150	Rawa Mazowiecka	20.25	51.7667
cnl00019335	Saint-Martin-la-Sauveté	3.9167	45.8331
cnl00019509	Santarém	-8.6828	39.2331
cnl00019724	Rollot	2.6494	49.5831
cnl00019925	Puebla de Montalban	-4.3589	39.8717
cnl00020079	Porto Ercole	11.1992	42.3992
cnl00020148	Fleetwood	-3.0167	53.9167
cnl00020182	La Genette	4.15	50.6492
cnl00020221	Lavinio	12.5867	41.4989
cnl00020293	La Ferté Milon	3.1167	49.1667
cnl00020421	Beignon	-2.1692	47.9717
cnl00020440	Bazoches-les-Gallerandes	2.0494	48.1667
cnl00020458	Poleymieux-au-Mont-d'Or	4.8006	45.8567
cnl00020549	Csabrendek	17.2831	47.0131
cnl00020550	Fót	19.1917	47.6092
cnl00020675	Monterchi	12.1117	43.4892
cnl00020700	Perinaldo	7.6742	43.8667
cnl00020792	Acquoy	5.1356	51.8789
cnl00020944	Agra	78.0167	27.1831
cnl00020968	Posušje	17.3331	43.4667
cnl00021117	Trimley St. Martin	1.3128	51.9906
cnl00021316	nan	4.4	45.6331
cnl00021742	Freberga	14.7167	58.3667
cnl00021891	Bayamo	-76.6328	20.3831
cnl00022303	Villefranche-de-Lonchat	0.05	44.95
cnl00022476	Iseo	10.0531	45.6581
cnl00022577	Grazalema	-5.3667	36.7667
cnl00022916	Beni Isguen	3.7	32.4831
cnl00023245	Ambenay	0.7331	48.8331
cnl00023468	Ransäter	13.4331	59.7667
cnl00023678	Martin Hussingtree	-2.1731	52.2392
cnl00024427	Aldfield	-1.5978	54.1194
cnl00024947	Zelo Bon Persico	9.4167	45.3994
cnl00024966	Charonne	2.3844	48.8547
cnl00025010	Courtisols	4.5331	48.9831
cnl00025039	Glageon	4.0831	50.0494
cnl00025541	Moeuvres	3.0667	50.1667
cnl00025618	Les Alleuds	-0.4	47.3167
cnl00025855	Akşehir	31.4164	38.3575
cnl00025911	Hamilton	-79.8667	43.25
cnl00026049	Lydbury North	-2.9556	52.4717
cnl00026111	Suvero 	9.9167	44.0831
cnl00026224	Buckhaven	-3.0303	56.1775
cnl00026478	Valdemoro	-3.6831	40.2
cnl00026558	Monte de Fralães	-8.5667	41.45
cnl00026574	Airdrie	-3.9667	55.8667
cnl00026583	Auchinleck	-4.2992	55.4667
cnl00026592	Bellshill	-4.0167	55.8167
cnl00026601	Buckie	-2.9667	57.6831
cnl00026604	Campbeltown	-5.5994	55.4167
cnl00026611	Coldstream	-2.25	55.6494
cnl00026619	Dalbeattie	-3.8167	54.9331
cnl00026621	Dalry	-4.7167	55.7
cnl00026625	Dufftown	-3.1331	57.45
cnl00026635	Earlston	-2.6831	55.6331
cnl00026638	Fintray	-2.2656	57.2378
cnl00026640	Forres	-3.6167	57.6167
cnl00026649	Grangemouth	-3.7167	56.0167
cnl00026658	Innerleithen	-3.0667	55.6167
cnl00026659	Inverary	-5.0667	56.2331
cnl00026660	Invergordon	-4.1667	57.6831
cnl00026661	Inverkip	-4.8667	55.8992
cnl00026664	Iona	-6.4	56.3294
cnl00026675	Kilmartin	-5.4831	56.1331
cnl00026682	Kintore	-2.35	57.2331
cnl00026692	Largs	-4.8667	55.7994
cnl00026696	Leuchars	-2.8831	56.3814
cnl00026704	Lochwinnoch	-4.6331	55.7994
cnl00026705	Lockerbie	-3.35	55.1167
cnl00026709	Monifieth	-2.8194	56.4806
cnl00026720	Orbiston	-4.0256	55.8164
cnl00026728	Pittenweem	-2.7289	56.2139
cnl00026730	Port Glasgow	-4.7	55.9331
cnl00026739	Rutherglen	-4.2139	55.8281
cnl00026740	Saltcoats	-4.7831	55.6331
cnl00026744	Sleat	-5.9331	57.1167
cnl00026749	Stonehaven	-2.2106	56.9639
cnl00026754	Tayport	-2.8667	56.4467
cnl00026764	Whithorn	-4.4167	54.7331
cnl00027442	Basse-Terre	-61.7331	16.0
cnl00027680	Gimont	0.8794	43.63
cnl00027794	Vall'Alta	9.8292	45.7628
cnl00027822	Charlestown	-71.0667	42.3831
cnl00027832	Arnac-Pompadour	1.3831	45.3994
cnl00028117	Martorell	1.9331	41.4831
cnl00028991	Villagarcía de Campos	-5.2	41.7831
cnl00029020	Santa Margarida i els Monjos, Catalunya	1.6642	41.3231
cnl00029060	Crathie	-3.2	57.0331
cnl00029061	Locarno	8.7981	46.1681
cnl00029210	Villefranche-sur-Mer	7.3094	43.7
cnl00029324	Berkeley	-2.4589	51.6906
cnl00029586	Glowno	19.7167	51.9667
cnl00030049	Davos-Platz	9.8206	46.7917
cnl00030138	Diessbach	7.3622	47.1094
cnl00030534	Geneva	-80.95	41.7994
cnl00030755	Mittelnkirchen	9.6117	53.5481
cnl00030782	Chodau	12.75	50.2331
cnl00031462	Burg auf Fehmarn	11.1831	54.4331
cnl00031795	Český Újezd	13.9642	50.6781
cnl00031856	Padingbüttel	8.5256	53.6989
cnl00032063	Higham	0.4631	51.4144
cnl00032376	Oberpahlen	25.8831	58.6492
cnl00032416	Kirchberg an der Jagst	9.9831	49.2
cnl00032589	Oberglatt	8.5194	47.4778
cnl00032889	Geneva	-88.31	41.89
cnl00032942	Komňa	17.8117	48.9892
cnl00032946	Proszowice	20.3	50.2
cnl00032947	Broxbourne	-0.0167	51.75
cnl00033339	Pirminsberg	9.5017	46.9906
cnl00033411	Eulau	15.5	51.5631
cnl00033508	Suzanne	2.7667	49.95
cnl00033515	Britsum	5.7831	53.25
cnl00033593	Jaen	-3.7831	37.7667
cnl00033620	Tàrrega	1.1392	41.6467
cnl00033624	Sant Andreu de Palomar	2.1917	41.4356
cnl00033634	Capellades	1.6831	41.5331
cnl00033644	Santa Coloma de Farners	2.6667	41.8667
cnl00033648	Camprodon	2.3667	42.3167
cnl00033650	Lluarca	-6.5331	43.5492
cnl00033669	Vilanova d'Alcolea	0.0717	40.2306
cnl00033670	Mont-roig del Camp	0.9667	41.0831
cnl00033679	Añover de Tajo	-3.7617	39.9878
cnl00033697	Espinelves	2.4181	41.8706
cnl00033700	Roda de Ter	2.3106	41.9839
cnl00033735	Windisch	8.2181	47.4789
cnl00033769	Sardent	1.8564	46.0514
cnl00033771	Tartas	-0.8081	43.8325
cnl00033775	Barum	10.4056	53.3517
cnl00033778	Briesen	14.2442	51.8153
cnl00033808	Sunningwell	-1.2828	51.7006
cnl00033810	Naftel	-1.1328	48.6106
cnl00033831	Gerri de la Sal	1.0667	42.3242
cnl00033834	Marcilhac-sur-Célé	1.7667	44.5492
cnl00033839	Alcora	-0.2	40.0667
cnl00033841	Aiguamúrcia	1.35	41.3167
cnl00033849	Langonnet	-3.5	48.1
cnl00033858	Newport	-2.3783	52.7689
cnl00000574	Skjern	8.5	55.95
cnl00000675	Putney	-0.2206	51.4642
cnl00000678	Kirn	-4.9167	55.9617
cnl00000805	Lampsaque	26.6831	40.3439
cnl00001566	Workum	5.445	52.9767
cnl00001794	Montmartre	2.3331	48.8831
cnl00002042	Galata	28.9667	41.0167
cnl00002543	Le Paraclet	3.5703	48.4678
cnl00002898	Cória	-6.5331	39.9831
cnl00003058	Kirkbride	-3.2028	54.8967
cnl00003183	Neufchâtel-en-Bray	1.4331	49.7331
cnl00003225	Poughill	-4.5256	50.8406
cnl00003234	Ramsey	-4.3842	54.3206
cnl00003310	Soure, Portugal	-8.6331	40.0667
cnl00003334	Swaffham	0.6831	52.6494
cnl00003397	Vandières	6.0331	48.95
cnl00003579	Talmont-Saint-Hilaire	-1.6167	46.4667
cnl00003635	Sarzyna	22.35	50.35
cnl00003655	Godthåb	-51.7192	64.18
cnl00003938	Giubiasco	9.0167	46.1667
cnl00004332	Saint-Jean-de-Boeuf	4.75	47.2167
cnl00005269	Solymár	18.9339	47.5914
cnl00005287	Oudenbosch	4.5239	51.5892
cnl00005301	Maassluis	4.2331	51.9331
cnl00005325	Weldam	6.5828	52.2167
cnl00006087	Deutsch-Schützen (Sicz)	16.4331	47.1667
cnl00016311	Hulsbergen	5.8494	50.8831
cnl00016431	Cegléd	19.7831	47.1667
cnl00016483	Érmihályfalva	22.1167	47.5167
cnl00016518	Hajdúszoboszló	21.3994	47.45
cnl00016535	Igló	20.5628	48.9442
cnl00016609	Lőrinci	19.6667	47.7331
cnl00016654	Mór	18.1994	47.3667
cnl00016669	Nagykapos	22.0667	48.5494
cnl00016671	Nagykáta	19.7331	47.4167
cnl00016674	Nagylak	20.7167	46.1667
cnl00016701	Óbecse	20.035	45.6181
cnl00016708	Orosháza	20.6667	46.5667
cnl00016728	Pelsőc	20.3994	48.5494
cnl00016730	Peredmér	18.5317	49.1981
cnl00016734	Pestszentimre	19.1831	47.3994
cnl00016754	Rákospalota	19.1167	47.5494
cnl00016778	Šintava	17.7692	48.28
cnl00016793	Szalárd	22.0667	47.2167
cnl00016796	Szászrégen	24.71	46.7767
cnl00016831	Szörcse	26.0667	45.8831
cnl00016834	Tahitótfalu	19.0667	47.75
cnl00016860	Torna	20.8781	48.6006
cnl00016870	Trencsénteplic	18.1681	48.9092
cnl00016900	Vizsoly	21.2164	48.3844
cnl00016909	Zombor	19.4331	48.1342
cnl00016911	Zsámbokrét	18.9306	49.0244
cnl00017322	Strongoli	17.0667	39.2667
cnl00033848	Želiv	15.2167	49.5331
cnl00019431	Lochau	9.75	47.5331
cnl00024691	Montepaone	16.5	38.7167
cnl00025239	Mézieres-en-Drouais	1.4331	48.7167
cnl00025324	Amatrice	13.2881	42.6292
cnl00026001	Norcia	13.0939	42.7931
cnl00027399	Busseto	10.0431	44.9792
cnl00029228	Ippendorf	7.0833	50.0756
cnl00029387	Ludwigshafen	9.0331	47.8167
cnl00029465	Leusden	5.4275	52.1314
cnl00029544	Kailua	-157.6981	21.3331
cnl00029687	List auf Sylt	8.4319	55.0183
cnl00029704	Lhasa	91.1314	29.6531
cnl00029761	Leipzig-Gohlis	12.3667	51.3608
cnl00029771	La Jolla	-117.2767	32.84
cnl00029792	Mühlstadt	12.2592	51.9256
cnl00030030	Mörz bei Belzig	12.6883	52.1208
cnl00030208	Etzean	8.9672	49.5881
cnl00030269	Madiswil	7.7997	47.1667
cnl00030354	Kampen auf Sylt	8.3419	54.9553
cnl00030461	Groß-Lengden bei Göttingen	10.0331	51.4667
cnl00030478	Menz bei Königsborn	11.8256	52.0731
cnl00030497	Köln-Nippes	6.9581	50.9642
cnl00030510	Embsen bei Lüneburg	10.3497	53.1831
cnl00030550	Gronau bei Elze	9.7831	52.0831
cnl00030625	Mauersberg	13.0903	50.6089
cnl00030720	Langenreichenbach	12.9033	51.4867
cnl00030855	Groß Grabe	14.0167	51.35
cnl00030964	Kastl bei Amberg	11.6817	49.3667
cnl00031123	Möttingen	10.5831	48.8167
cnl00031373	Jaslo	21.4667	49.75
cnl00031494	Mittelzell	9.0631	47.6931
cnl00031588	Graal-Müritz	12.25	54.25
cnl00031742	nan	12.0942	49.2025
cnl00031784	Kladow	13.1428	52.4531
cnl00031827	Kew Gardens	-0.2928	51.2231
cnl00031977	Gozon-Jura	-5.7997	43.6167
cnl00031989	Hsinchu	120.9831	24.8167
cnl00032099	Mitwitz bei Kronach	11.2094	50.2481
cnl00032181	Großborstel b. Hamburg	9.9822	53.6133
cnl00032346	Märwil	9.0167	47.5167
cnl00032432	Heckholzhausen	8.1578	50.4844
cnl00032453	Hütten bei Königstein	14.0714	50.9167
cnl00032572	Kettwig	6.94	51.3681
cnl00032642	Harpenden	-0.3519	51.8167
cnl00032722	Dienethal	7.7831	50.2994
cnl00032753	Klecken	9.9392	53.3667
cnl00023021	Blanchefosse	4.2367	49.7781
cnl00024090	Bihar	85.2167	25.6167
cnl00024436	Binfield	-0.7917	51.4317
cnl00027327	Sarajevo	18.4308	43.8594
cnl00027422	Sudbury, Suffolk	0.7331	52.0331
cnl00027526	Saint-Valery-sur-Somme	1.6331	50.1831
cnl00027826	Rocchetta a Volturno, Italie	14.0892	41.6267
cnl00028090	Saint-Étienne	4.3831	45.4331
cnl00028988	Bale, Croàcia	13.7869	45.0456
cnl00030031	Le Temple	0.9331	47.9331
cnl00030931	Rotenburg	9.4	53.1
cnl00031202	Schönberg	8.5164	50.1831
cnl00033559	Avinyò	1.9667	41.8667
cnl00033809	Rheinzabern	8.2831	48.1167
cnl00033838	Frumuşeni	21.4667	46.1
cnl00000178	Bombay	72.8256	18.9642
cnl00000609	Hallowell	-69.7978	44.2867
cnl00000982	Katwijk	4.4167	52.2
cnl00002195	Wigton	-3.1589	54.8228
cnl00003114	Marschlins	9.5844	46.9542
cnl00003159	Moulsey	-0.35	51.3992
cnl00003321	Stockport, Greater Manchester	-2.1492	53.4081
cnl00003438	Winter-Harbour	-68.1328	44.35
cnl00004216	Norwood, Pa.	-75.2967	39.8881
cnl00005054	Oldelamer	5.9331	52.8667
cnl00005304	Overschie	4.4331	51.9331
cnl00005375	Goor	6.5831	52.2331
cnl00006225	Mülheim	7.0042	50.9617
cnl00006471	Opatów	21.4167	50.7994
cnl00015992	Asbach	11.9667	48.7667
cnl00016335	Selwerd	6.5331	53.2331
cnl00016418	Bolyok	20.25	48.2167
cnl00016420	Borgóprund	24.7331	47.2167
cnl00016465	Diósgyőr	20.6994	48.1
cnl00016592	Korpona	19.0667	48.35
cnl00016614	Magyarfalu	27.1831	46.3331
cnl00016638	Mezőtúr	20.6167	47.0
cnl00016659	Nádasfő	17.1656	48.4581
cnl00016715	Pádé	20.1494	45.8167
cnl00016718	Pancsova	20.6494	44.8667
cnl00016739	Polgár	21.1167	47.8667
cnl00016741	Poroszló	20.6494	47.6331
cnl00016765	Sajószentpéter	20.7167	48.2167
cnl00016770	Sárvár	16.9331	47.25
cnl00016819	Szered	17.7375	48.2864
cnl00016887	Vályabrád	22.8281	46.1506
cnl00017553	Harold's Cross	-6.2942	53.3264
cnl00018522	Morteau	6.6167	47.0667
cnl00018573	Hyères	6.1167	43.1167
cnl00018681	La Fère	3.3667	49.6667
cnl00018872	Lesparre-Médoc	-0.9331	45.2994
cnl00019251	Hvar	16.7331	43.1331
cnl00019549	Sauve	3.95	43.9331
cnl00019568	Neuberg	8.9831	50.2
cnl00019587	Santa Marta	-74.2	11.2331
cnl00019648	Lailly	3.5331	48.25
cnl00019714	Sales	5.9606	45.8756
cnl00019821	Wrington	-2.7606	51.3617
cnl00019828	Ruthven	-4.0442	57.0678
cnl00019969	Fossanova	13.1967	41.4381
cnl00020149	Lismore	-7.9306	52.1367
cnl00020258	Darwen	-2.45	53.7
cnl00020429	Rota d'Imagna	9.5167	45.8331
cnl00020544	Hautvillers	3.95	49.0831
cnl00021099	Ouanaminthe	-71.7331	19.55
cnl00021676	Goyencourt	2.7667	49.7167
cnl00021723	Albano Laziale	12.6667	41.7331
cnl00021727	Gauro	14.1053	40.8481
cnl00022395	Almería	-2.4331	36.8331
cnl00023005	Addlestone	-0.4831	51.3667
cnl00023010	La Pommeraye	-0.8667	47.35
cnl00024303	Adelfia	16.8667	41.0
cnl00024912	Saint Peter Port	-2.5381	49.4544
cnl00025245	Ostra Vetere	13.0667	43.6
cnl00025282	Alcalá de la Jovada	-0.2525	38.7942
cnl00025325	Varambon	5.3142	46.0419
cnl00026108	Jaunpur	82.6667	25.7331
cnl00026134	Chasna	-16.6331	28.1492
cnl00026383	Villaines sous Lucé	0.4831	47.8667
cnl00026450	Clerkenwell	-0.1031	51.5256
cnl00026578	Annan	-3.25	54.9831
cnl00026582	Ardrossan	-4.7994	55.6494
cnl00026597	Bridge of Allan	-3.95	56.1494
cnl00026605	Carluke	-3.8331	55.7331
cnl00026608	Castle Douglas	-3.9331	54.95
cnl00026615	Cumbrae	-4.9175	55.7689
cnl00026618	Dairsie	-2.95	56.35
cnl00026624	Dreghorn	-4.6167	55.6067
cnl00026634	Dunse	-2.35	55.7831
cnl00026639	Forfar	-2.8831	56.6494
cnl00026644	Girvan	-4.8494	55.2331
cnl00026645	Glamis Castle	-3.0017	56.6203
cnl00026648	Govan	-4.3167	55.8667
cnl00026650	Grantown-on-Spey	-3.6167	57.3331
cnl00026655	Helensburgh	-4.7331	56.0
cnl00026668	Johnstone	-4.5	55.8331
cnl00026669	Keith	-2.95	57.5494
cnl00026671	Kennoway	-3.0494	56.2
cnl00026674	Kilmarnock	-4.5	55.6167
cnl00026679	Kinfauns	-0.3681	51.3592
cnl00026686	Kirkintilloch	-4.15	55.9331
cnl00026701	Lochgelly	-3.3106	56.1281
cnl00026724	Peebles	-3.18	55.6494
cnl00026750	Stow	-2.8617	55.6917
cnl00026751	Stranraer	-5.0331	54.8992
cnl00026758	Tranent	-2.95	55.95
cnl00026760	Turriff	-2.4606	57.5389
cnl00026851	Vilanova i la Geltrú	1.725	41.225
cnl00026908	Heiligenkreuz	16.1292	48.0564
cnl00027076	Lonlay-l'Abbaye	-0.7167	48.6494
cnl00027216	Montignac	1.1667	45.0667
cnl00027490	Sixt-Fer-à-Cheval	6.7694	46.0494
cnl00027576	Crest	3.1331	45.6831
cnl00027976	La Châtre	1.9831	46.5831
cnl00027995	Montreuil	1.7667	50.4667
cnl00028122	Mataró	2.4331	41.5331
cnl00029055	Cuba	-7.8906	38.1644
cnl00029209	Farmington	-71.0653	43.3892
cnl00029259	Fairfax, Va.	-77.3042	38.8519
cnl00029787	Aligarh	78.0753	27.8908
cnl00029848	Arlington	-73.1639	43.0742
cnl00029878	Memphis	31.25	29.85
cnl00029929	Kingston, Jamaica	-76.7994	18.0167
cnl00029955	Kluczbork	18.2167	50.9667
cnl00030020	Feldis/Veulden	9.4328	46.7942
cnl00030083	College Park	-76.9331	39.0
cnl00030092	Brugg, Aargau	8.1994	47.4831
cnl00030169	Kirchberg	9.0331	47.3992
cnl00030179	Claremont	-0.3681	51.3592
cnl00030971	Buchholz	9.0106	52.4531
cnl00031366	Endenich	7.0722	50.725
cnl00032306	Czortkòw	25.8	49.0167
cnl00032873	Mora	14.55	61.0
cnl00032956	Chavanod	6.0494	45.8831
cnl00033509	Ploaré	-4.3206	48.085
cnl00033511	Cocumont	0.0331	44.45
cnl00033514	Villafranca del Bierzo	-6.8075	42.6075
cnl00033545	Deddington	-1.32	51.9889
cnl00033561	Almeria	-2.4331	36.8331
cnl00033587	Donostia- San Sebastián	-1.9831	43.3167
cnl00033625	Benabarre	0.4831	42.1
cnl00033628	Santa Cruz de la Palma	-17.7667	28.6831
cnl00033630	Manlleu	2.2831	42.0
cnl00033631	Villar de los Navarros	-1.0331	41.1492
cnl00033638	Sant Cugat del Vallès	2.0831	41.4667
cnl00033641	Montagut i Oix	2.6	42.2331
cnl00033651	Balsareny	1.8831	41.8667
cnl00033655	L'Arboç	1.6042	41.2689
cnl00033675	Calonge	3.0831	41.8667
cnl00033678	Sant Pol de Mar	2.6167	41.6
cnl00033710	nan	16.8667	51.5492
cnl00033755	Bléré	0.9917	47.3269
cnl00033760	Mont-Saint-Sulpice	3.6267	47.9528
cnl00033770	Seifriedsberg	10.255	47.5278
cnl00033779	Petershain	14.1606	51.6242
cnl00033800	Bonny-sur-Loire	2.8331	47.5667
cnl00033814	Condé-en-Normandie	-0.55	48.85
cnl00033828	Sástago	-0.35	41.3331
cnl00033835	Gura Humorului	25.8867	47.5542
cnl00033840	Concepción	-73.0492	-36.8331
cnl00033850	Le Pont-de-Montvert	3.75	44.3667
cnl00033859	Newport	-94.1042	37.5278
cnl00002846	Benavente	-8.8	38.9667
cnl00020624	San Severo	15.3831	41.6831
cnl00022312	Le Plessis-Robinson	2.2667	48.7831
cnl00022556	Monasterium Xeropotamou 	24.2192	40.2278
cnl00025105	Groß-Montau	18.85	54.0167
cnl00026225	Kala't ibn Ḥamad	4.7892	35.8206
cnl00029341	Haus Villigst bei Schwerte	7.5947	51.4342
cnl00029396	Kalrsruhe	8.4	49.0167
cnl00029431	Kochem	7.1667	50.1497
cnl00029497	Hunteburg	8.2733	52.4367
cnl00029538	Mölltorp	14.4	58.5
cnl00029540	Boone,Iowa	-93.8803	42.0594
cnl00029797	Iptingen	8.8506	48.8567
cnl00029811	Hamberge	10.5831	53.8331
cnl00030071	Mt. Pocono	-75.3592	41.1231
cnl00030145	Groß-Grimma	12.15	51.1667
cnl00030235	Deinstedt	9.2167	53.4167
cnl00030400	Mauer bei Heidelberg	8.7983	49.3389
cnl00030424	Dserwen bei Hasenpoth	21.6	56.7167
cnl00030492	Forst bei Ansbach	10.6631	49.3483
cnl00030514	Hannover-Hainholz	9.7167	52.4167
cnl00030535	Lemont	-87.9883	41.6683
cnl00030596	Groß-Lopke	10.0117	52.2703
cnl00030641	Hamburg-Neugraben	9.8494	53.4831
cnl00030804	Eschefeld i. Sa.	12.5192	51.0367
cnl00030811	Macongie	-75.5517	40.5139
cnl00030893	Dunsen	9.7092	52.0689
cnl00031491	Muggenbrunn	7.9439	47.8331
cnl00031557	Hösel bei Düsseldorf	6.9092	51.3306
cnl00031743	Etterzhausen	11.9789	49.0317
cnl00031791	Kitzeberg über Kiel	10.1867	54.3603
cnl00031826	Imshausen b. Bebra	9.8617	50.9975
cnl00031873	Lichtenstein in Sachsen	11.4042	50.7564
cnl00032085	Kaierslautern	7.7689	49.4444
cnl00032395	Hohenklee	10.3331	51.85
cnl00032436	Dreischweinsköpfen	18.1	54.5
cnl00032499	Dühren bei Sinsheim	8.835	49.2453
cnl00032733	Kehlbach bei Kronach	11.3158	50.4456
cnl00032762	Ludwigshafen a	8.4478	49.4831
cnl00033861	Oliva	-0.1206	38.9192
cnl00018233	Île d'Aix	1.1667	46.0167
cnl00030723	Neuerkerode	10.6581	52.2128
cnl00032358	Natschbach	16.1	47.7
cnl00027878	Vera de Moncayo	-1.6864	41.8367
cnl00030994	Nassau	7.7997	50.31
cnl00032521	Neckerau	8.4628	49.4831
cnl00029356	New Paltz	-74.0831	41.75
cnl00032445	Neustadt a.d.Orla	11.7458	50.7364
cnl00029347	New City	-73.9831	41.1494
cnl00032265	Niemberg bei Halle	12.0908	51.5508
cnl00029676	Niedernjesa	9.9258	51.4758
cnl00029776	Newton Lower Falls	-71.25	42.3331
cnl00031679	Neuwiese i.	12.7206	50.6967
cnl00032134	Niederau	12.0892	47.4642
cnl00030706	Niederhone bei Eschwege	10.0092	51.1981
cnl00030086	Nairobi	36.8167	-1.2831
cnl00017505	Campo di Pietra	12.5364	45.7039
cnl00022034	Galbiate	9.3778	45.8158
cnl00017035	Cluj	23.6	46.77
cnl00029739	Nastätten i. Taunus	7.8581	50.2
cnl00030797	Neumarck	12.3553	50.6567
cnl00032203	Neu-Raussnitz	16.8831	49.2
cnl00030238	Naperville	-88.15	41.75
cnl00032446	Neuengronau	9.6042	50.2703
cnl00029524	Neunkirchen am Brand	11.1283	49.6167
cnl00021172	Pontremoli	9.8794	44.3756
cnl00027377	Monteriggioni	11.2167	43.3994
cnl00029796	Niederalben	7.4667	49.6064
cnl00032036	Neustadt-Magdeburg	11.6167	52.1331
cnl00029439	Niederhof über Murg in Baden	8.0242	47.5544
cnl00010551	Kempten	10.32	47.7192
cnl00029675	Oberkassel	6.7547	51.2303
cnl00029975	Noda	139.8667	35.95
cnl00030538	Nievenheim über Neuß	6.7683	51.1142
cnl00032090	Oberkassel	7.1678	50.7131
cnl00033529	La Cervara	9.2131	44.3131
cnl00032740	Nordhausen-Leimbach	10.8658	51.5
cnl00001723	Guatemala	-90.5233	14.6317
cnl00029188	Northville	-83.4831	42.4331
cnl00017377	Constantine	6.6142	36.365
cnl00016811	Szentendre	18.0775	47.6653
cnl00032875	Oberbergstraße	7.9731	51.5678
cnl00022621	Procida	14.0178	40.7608
cnl00024220	Oude Pekela	7.0167	53.1
cnl00030366	Ohndorf	9.3506	52.3558
cnl00030984	Ottobrunn bei München	11.6667	48.0667
cnl00027821	Cardona	1.6806	41.9131
cnl00029912	Orono	-68.7383	44.8817
cnl00030495	Nügata	139.0331	37.9167
cnl00031297	Oppenheim am Rhein	8.3558	49.85
cnl00032074	Oxted	-0.0167	51.25
cnl00030571	Oiste	9.1556	52.9133
cnl00031102	Oberpfaffenhofen	11.2639	48.0733
cnl00031362	Obersinn	9.6167	50.2167
cnl00031713	Oceanside	-117.3256	33.2117
cnl00030630	nan	11.0703	49.4406
cnl00003531	Isola Dovarese	10.3119	45.1756
cnl00032176	Obdach	14.6997	47.0667
cnl00025249	Izola	13.6575	45.5389
cnl00031272	Cordoba	-64.1831	-31.3992
cnl00032633	Pacific Grove	-121.9208	36.6192
cnl00029814	Obervellmar	9.4639	52.5517
cnl00032199	Osterwitz	15.0906	46.8594
cnl00019372	Petrovo Selo	22.4497	44.6331
cnl00031668	Pfaffroda	13.3497	50.7
cnl00031810	Pisz	21.8	53.6167
cnl00031925	Pocking	13.3167	48.3997
cnl00030166	Pelzerhaken	10.9603	54.0906
cnl00030890	Plossig bei Torgau	12.9514	51.6953
cnl00031950	Palic	19.7581	46.1042
cnl00032754	Peio	10.6667	46.3667
cnl00001589	Yverdon-les-Bains	6.6392	46.7789
cnl00008885	Einsiedeln	8.75	47.1194
cnl00009065	Évora	-7.9	38.57
cnl00027762	Ebrach	10.4942	49.8489
cnl00032398	Plötzensee	13.3208	52.5431
cnl00029590	Point Richmond	-122.3494	37.9331
cnl00031514	Pompei	14.5	40.75
cnl00032583	Prasek	15.55	50.2331
cnl00021927	Ferrières	-0.2625	43.0106
cnl00032324	Prag-Karolinental	14.455	50.0942
cnl00020418	Pontgoin	1.1667	48.4831
cnl00023509	La Flêche	-0.08	47.7
cnl00030249	Preuß. Börnecke	10.9617	51.7953
cnl00031561	Preßbaum	16.0831	48.1831
cnl00030894	Pullman	-117.1667	46.7331
cnl00030232	Purchase	-73.715	41.0406
cnl00030217	Pähl	11.1775	47.9056
cnl00030432	Pödelist bei Naumburg	11.8353	51.2067
cnl00001683	Saint-Paul-Trois-Châteaux	4.7689	44.3492
cnl00002308	Ägina	23.5	37.7331
cnl00002701	Vence	7.1131	43.7228
cnl00004310	Roggenburg	7.3331	47.4331
cnl00006581	Pau	-0.37	43.2994
cnl00006927	Arco	10.88	45.92
cnl00007025	Auch	0.5792	43.6492
cnl00007292	Bellinzona	9.0194	46.2
cnl00008669	Dôle	5.5	47.1
cnl00009146	Firmi	2.3192	44.53
cnl00009573	Goupillières	0.9792	49.5792
cnl00010153	Eisenberg	10.5992	47.6
cnl00010933	Lądek-Zdrój	16.8792	50.35
cnl00011030	Laval, Mayenne	-0.77	48.07
cnl00011125	Les Granges-le-Roi	2.02	48.5
cnl00011214	Limbourg	5.9294	50.6194
cnl00011296	Loitz	13.13	53.9694
cnl00011335	Loudun	0.07	47.0
cnl00011382	Lugano	8.97	46.0
cnl00014278	Stans	8.3494	46.9694
cnl00014960	Västerås	16.55	59.6192
cnl00015676	York	-1.08	53.9692
cnl00016022	Caen	-0.2092	49.1092
cnl00016395	Bánffyhunyad	23.0167	46.8667
cnl00016442	Cservenka	19.4492	45.6492
cnl00017240	Bernouville	1.6942	49.2914
cnl00018358	Bersée	3.1456	50.4825
cnl00020862	Bernweiler	7.1914	47.6917
cnl00022451	Valence d'Agen	0.8831	44.1167
cnl00023581	Zelazowa Wola	20.3167	52.25
cnl00025212	Île deJava	111.0	-8.0
cnl00027211	Valence-sur-Baïse	0.3814	43.8817
cnl00028370	Oberwesel	7.7214	50.1106
cnl00029337	Westerbork	6.6108	52.85
cnl00029389	Wernigerorde	10.7767	51.8356
cnl00029677	Westerbeck bei Osterholz-Scharmbeck	8.8	53.2331
cnl00029681	Regina	-104.6167	50.45
cnl00029799	Wiemsdorf bei Bremerhaven	8.4806	53.4719
cnl00029807	Rüningen	10.5028	52.2217
cnl00029852	Westmount	-73.5994	45.4831
cnl00029922	Saskatoon	-106.6667	52.1331
cnl00029995	Ypsilanti	-83.6181	42.25
cnl00030084	West de Pere	-88.0603	44.4489
cnl00030156	Würdenhain	13.4581	51.4744
cnl00030191	Wolfshayn	15.75	51.2667
cnl00030262	Wraysbury	-0.5517	51.4578
cnl00030523	Salzgitter-Bad	10.4056	52.1533
cnl00030823	Roringen	9.9356	51.5339
cnl00030903	Westermarsch	7.1519	53.5742
cnl00030917	Wetter	7.3906	51.3833
cnl00030967	Wyk	8.5592	54.6917
cnl00031128	Woporan	14.4831	49.3994
cnl00031339	Üchtelhausen	10.2697	50.0917
cnl00025091	Bessan	3.4242	43.3617
cnl00025281	San Biagio Platani	13.5331	37.5167
cnl00029262	Santa Barbara	-119.7031	34.4167
cnl00029746	La Luisa	59.9667	-34.1331
cnl00029826	Salzhemmendorf über Elze	9.5853	52.0681
cnl00029977	Saga	130.3	33.2667
cnl00030203	Rhoden(Waldeck	9.0097	51.4753
cnl00030436	Schweigen bei Weißenburg	7.9517	49.0506
cnl00030476	Salzgitter-Thiede	10.4839	52.1869
cnl00030752	Bodenbach-Tetschen	14.2167	50.7667
cnl00030790	Rebesgrün	12.3692	50.5258
cnl00030876	Salder-Salzgitter	10.4056	52.1533
cnl00030956	Schloß Hohenwehrda	9.6767	50.7475
cnl00031168	Riedbach	10.4331	50.1
cnl00031483	Schleinz	16.2331	47.7167
cnl00031935	Redlands	-117.1831	34.0497
cnl00032187	Rengensdorf	8.4742	47.4381
cnl00032239	Les Eyzies-de-Tayac	1.0167	44.9331
cnl00032474	Schickenhof	11.9094	49.6225
cnl00032487	Rommersberg bei Engelskirchen	7.4131	50.9956
cnl00033517	Mimbaste	-0.9667	43.6492
cnl00000132	Brie	2.9331	49.8831
cnl00000222	Bruckberg	10.6992	49.35
cnl00000989	Saint-Pourçain-sur-Sioule	3.2831	46.2992
cnl00002935	Dampierre	5.75	47.1492
cnl00002949	Donnemarie	3.1331	48.4831
cnl00002955	Duillier	6.2331	46.4167
cnl00003012	Gournay-en-Bray	1.7242	49.4814
cnl00003191	Olmedo	-4.7081	41.3014
cnl00003276	Sarepta	44.5167	48.5167
cnl00003398	Véretz	0.8	47.3667
cnl00003667	Fawsley	-1.1742	52.2128
cnl00006207	Marktbreit	10.15	49.6667
cnl00007282	Bellac	1.05	46.1194
cnl00007859	Burgdorf	7.62	47.0492
cnl00008341	Cologny	6.2	46.2192
cnl00009063	Evesham	-1.9297	52.0794
cnl00009066	Evreux	1.1492	49.02
cnl00011430	Macon	4.83	46.2994
cnl00011455	Mahón	4.2692	39.89
cnl00012005	Munster	6.9	48.92
cnl00012182	Środa Śląska	16.6	51.17
cnl00012197	Neustadt in Holstein	10.82	54.1
cnl00012886	Pons	-0.55	45.5792
cnl00013222	Rheinau	8.6092	47.6492
cnl00014241	Saint-Léger	5.65	49.6192
cnl00015126	Vitré	-1.1994	48.13
cnl00016466	Ditró	25.4831	46.7992
cnl00016726	Pécs	18.2167	46.0667
cnl00016885	Vágújhely	17.8331	48.7556
cnl00017461	Bidarray	-1.3439	43.2667
cnl00017801	Estaires	2.7167	50.6331
cnl00017829	Cardinale	16.3831	38.6492
cnl00017971	Chêne-Bougeries	6.1831	46.1831
cnl00018168	Biol	5.3856	45.4917
cnl00018451	Bernis	4.2831	43.7667
cnl00019707	Maureilhan	3.1206	43.3581
cnl00019733	Barby	4.3131	49.5228
cnl00019863	Estillac	0.5644	44.155
cnl00020195	Aigueperse	3.2	46.0167
cnl00020413	Estagel	2.7	42.7667
cnl00020981	Bitry	3.0806	47.4906
cnl00021270	Poix-de-Picardie	1.9842	49.7756
cnl00021430	Mayland	0.7667	51.6803
cnl00021900	Bourg	-0.5556	45.0406
cnl00022109	La Garde-Adhémar	4.7542	44.3939
cnl00022308	Plasencia	-6.0844	40.0392
cnl00022374	Bellegarde	2.4431	47.99
cnl00022420	Bizanos	-0.3503	43.2881
cnl00022938	Poggio Mirteto	12.6839	42.2667
cnl00023407	Agnone	14.3781	41.8103
cnl00024097	La Crèche	-0.2989	46.3617
cnl00025006	Ugljara	18.6994	45.0331
cnl00025157	Limassol	33.0442	34.6742
cnl00025166	Pierry	3.9331	49.0167
cnl00025213	Bhamdoun	35.6553	33.8092
cnl00025989	Sokobanja	21.8708	43.6431
cnl00027097	Le Mont-Saint-Michel	-1.5106	48.6356
cnl00027170	Ferrières-en-Gâtinais	2.7831	48.1
cnl00027330	Lucelle	7.2467	47.4217
cnl00027445	Diessenhofen	8.75	47.6831
cnl00027511	Melrose	-2.7167	55.6
cnl00027538	Fontaine-lès-Dijon	5.0167	47.35
cnl00027579	La Lucerne-d'Outremer	-1.4267	48.7842
cnl00027831	Providence, R. I.	-71.4167	41.8331
cnl00027978	San Benedetto Po	10.9336	45.0461
cnl00028487	Loccum	9.1467	52.4528
cnl00029422	Sprötze	9.8667	53.3331
cnl00029523	Sosa im Erzgebirge	12.5975	50.5
cnl00029606	Berlin-Charlottenburg	13.3	52.5167
cnl00029632	Tuttwyl	8.9392	47.4839
cnl00029647	Schönpriesen bei Aussig	14.0819	50.6664
cnl00029689	Warchau bei Gr. Wusterwitz	12.3442	52.3594
cnl00031529	Wehlheiden bei Kassel	9.4656	51.3117
cnl00031731	Ühlingen	8.3178	47.7192
cnl00031928	Wurmlingen b. Tübingen	8.9653	48.5019
cnl00031982	Yellow Springs	-83.9	39.7997
cnl00032274	Wischau	17.0	49.2831
cnl00032275	Zempelburg	17.5167	53.45
cnl00032551	Wohlenschwil	8.2589	47.4114
cnl00032571	Zoppot b. Danzig	18.55	54.4331
cnl00033916	Bénévent-et-Charbillac	6.0864	44.6972
cnl00002870	Bourg-Saint-Andéol	4.6442	44.3731
cnl00009917	Hasselt	5.33	50.9294
cnl00030353	Unterbach bei Erkrath	6.9	51.2
cnl00030542	Tisza-Eszlau	21.3689	47.9556
cnl00030603	Wehlau in Ostpreußen	21.2167	54.6167
cnl00030656	Speele	9.5639	51.3767
cnl00030881	Soltborg	7.3806	53.2356
cnl00031096	Traben-Trabach	7.1167	49.9508
cnl00031904	Urmatt	7.325	48.5267
cnl00032044	Stühren	8.0117	52.8831
cnl00032838	Tourette-sur-Loup	7.0667	43.7167
cnl00033684	Sant Joan de les Abadesses	2.2831	42.2331
cnl00033823	Maresquel-Ecquemicourt	1.9331	50.4167
cnl00006198	Lwówek Śląski	15.5831	51.1167
cnl00008205	Châtillon-sur-Seine	4.5494	47.85
cnl00008208	Chaumont	5.1294	48.1194
cnl00009253	Freystadt, Niederschlesien	15.5992	51.75
cnl00011921	Morges	6.5	46.52
cnl00016627	Marosludas	24.0831	46.4667
cnl00018724	Bessières (Haute-Garonne)	1.6067	43.8014
cnl00022564	Rakovica	15.6492	44.9919
cnl00029426	Reichertsheim	12.2831	48.2
cnl00030833	Rasemühle bei Göttingen	9.8717	51.4992
cnl00031125	Salbke b. Magdeburg	11.6681	52.0764
cnl00032182	Farnborough	-1.3781	51.5339
cnl00032679	Thaleischweiler	7.5831	49.2667
cnl00033552	Clevedon	-2.85	51.4331
cnl00001234	Raitenbuch	11.1331	49.0167
cnl00009326	Gaillon	1.33	49.17
cnl00018282	Charmoille	6.6667	47.25
cnl00026446	Treia	13.3128	43.3106
cnl00029566	Zlatar	16.1167	46.1497
cnl00030176	Wierchomia	20.7803	49.4181
cnl00030307	Weyden	20.0981	54.8719
cnl00030907	Wickershof	9.1758	51.0153
cnl00032520	Zingst	12.6831	54.4356
cnl00033676	Vilanant	2.8831	42.25
cnl00033926	Benévént-l’Abbaye	1.6292	46.1181
cnl00006642	Adorf	12.2694	50.32
cnl00010063	Hesdin	2.0294	50.3694
cnl00010699	Oels	17.3792	51.2
cnl00011368	Luçon	-1.1694	46.45
cnl00016380	Lendava	16.4494	46.5494
cnl00018868	Bursa	29.0667	40.1831
cnl00021124	Rouy le Petit	2.95	49.7667
cnl00021748	Varazd	16.3381	46.3081
cnl00027287	Trzebnica	17.0667	51.2992
cnl00027587	Sesto al Reghena	12.8167	45.85
cnl00029427	Sendai	140.8667	38.2667
cnl00029753	Vladikavkaz	44.6831	43.0167
cnl00029842	Sonoma	-122.45	38.2831
cnl00031525	Sandershausen	9.5506	51.3219
cnl00031600	Schwärzdorf	11.2017	50.2703
cnl00031640	Schloß Kuchelna	18.1181	49.9881
